zip_code,latitude,longitude,city,state,county
501,40.922326,-72.637078,Holtsville,New York,Suffolk
544,40.922326,-72.637078,Holtsville,New York,Suffolk
601,18.165273,-66.722583,Adjuntas,Puerto Rico,Adjuntas
602,18.393103,-67.180953,Aguada,Puerto Rico,Aguada
603,18.455913,-67.14578,Aguadilla,Puerto Rico,Aguadilla
604,18.49352,-67.135883,Aguadilla,Puerto Rico,Aguadilla
605,18.465162,-67.141486,Aguadilla,Puerto Rico,Aguadilla
606,18.172947,-66.944111,Maricao,Puerto Rico,Maricao
610,18.288685,-67.139696,Anasco,Puerto Rico,Anasco
611,18.279531,-66.80217,Angeles,Puerto Rico,Utuado
612,18.450674,-66.698262,Arecibo,Puerto Rico,Arecibo
613,18.458093,-66.732732,Arecibo,Puerto Rico,Arecibo
614,18.429675,-66.674506,Arecibo,Puerto Rico,Arecibo
616,18.444792,-66.640678,Bajadero,Puerto Rico,Arecibo
617,18.447092,-66.544255,Barceloneta,Puerto Rico,Barceloneta
622,17.998531,-67.187318,Boqueron,Puerto Rico,Cabo Rojo
623,18.062201,-67.149541,Cabo Rojo,Puerto Rico,Cabo Rojo
624,18.023535,-66.726156,Penuelas,Puerto Rico,Penuelas
627,18.477891,-66.85477,Camuy,Puerto Rico,Camuy
631,18.269187,-66.864993,Castaner,Puerto Rico,Lares
636,18.113284,-67.039706,Rosario,Puerto Rico,San German
637,18.087322,-66.934911,Sabana Grande,Puerto Rico,Sabana Grande
638,18.33616,-66.472087,Ciales,Puerto Rico,Ciales
641,18.250027,-66.698957,Utuado,Puerto Rico,Utuado
646,18.43606,-66.281954,Dorado,Puerto Rico,Dorado
647,17.969594,-66.939754,Ensenada,Puerto Rico,Guanica
650,18.360125,-66.562311,Florida,Puerto Rico,Florida
652,18.457254,-66.603358,Garrochales,Puerto Rico,Arecibo
653,17.972468,-66.898661,Guanica,Puerto Rico,Guanica
656,18.02328,-66.786909,Guayanilla,Puerto Rico,Guayanilla
659,18.481391,-66.808696,Hatillo,Puerto Rico,Hatillo
660,18.145486,-67.135323,Hormigueros,Puerto Rico,Hormigueros
662,18.480285,-67.028155,Isabela,Puerto Rico,Isabela
664,18.217606,-66.598306,Jayuya,Puerto Rico,Jayuya
667,18.015099,-67.055973,Lajas,Puerto Rico,Lajas
669,18.295952,-66.881925,Lares,Puerto Rico,Lares
670,18.252135,-66.990967,Las Marias,Puerto Rico,Las Marias
674,18.44553,-66.490268,Manati,Puerto Rico,Manati
676,18.383727,-67.080799,Moca,Puerto Rico,Moca
677,18.335781,-67.252547,Rincon,Puerto Rico,Rincon
678,18.45303,-66.933689,Quebradillas,Puerto Rico,Quebradillas
680,18.219023,-67.508068,Mayaguez,Puerto Rico,Mayaguez
681,18.219023,-67.508068,Mayaguez,Puerto Rico,Mayaguez
682,18.219023,-67.508068,Mayaguez,Puerto Rico,Mayaguez
683,18.113284,-67.039706,San German,Puerto Rico,San German
685,18.3236,-66.972227,San Sebastian,Puerto Rico,San Sebastian
687,18.316976,-66.415207,Morovis,Puerto Rico,Morovis
688,18.429675,-66.674506,Sabana Hoyos,Puerto Rico,Arecibo
690,18.476196,-67.139597,San Antonio,Puerto Rico,Aguadilla
692,18.435818,-66.338523,Vega Alta,Puerto Rico,Vega Alta
693,18.443109,-66.398302,Vega Baja,Puerto Rico,Vega Baja
694,18.443109,-66.398302,Vega Baja,Puerto Rico,Vega Baja
698,18.06104,-66.861164,Yauco,Puerto Rico,Yauco
703,18.250398,-66.12845,Aguas Buenas,Puerto Rico,Aguas Buenas
704,17.99229,-66.139253,Aguirre,Puerto Rico,Guayama
705,18.128092,-66.268717,Aibonito,Puerto Rico,Aibonito
707,18.007014,-65.898719,Maunabo,Puerto Rico,Maunabo
714,17.96751,-66.04138,Arroyo,Puerto Rico,Arroyo
715,18.011854,-66.563721,Mercedita,Puerto Rico,Ponce
716,18.001995,-66.607429,Ponce,Puerto Rico,Ponce
717,18.001995,-66.607429,Ponce,Puerto Rico,Ponce
718,18.22139,-65.77831,Naguabo,Puerto Rico,Naguabo
719,18.298017,-66.229751,Naranjito,Puerto Rico,Naranjito
720,18.226862,-66.39402,Orocovis,Puerto Rico,Orocovis
721,18.364161,-65.778288,Palmer,Puerto Rico,Rio Grande
723,18.009994,-66.010572,Patillas,Puerto Rico,Patillas
725,18.212965,-66.058033,Caguas,Puerto Rico,Caguas
726,18.212965,-66.058033,Caguas,Puerto Rico,Caguas
727,18.212965,-66.058033,Caguas,Puerto Rico,Caguas
728,18.001995,-66.607429,Ponce,Puerto Rico,Ponce
729,18.333093,-65.883864,Canovanas,Puerto Rico,Canovanas
730,18.001995,-66.607429,Ponce,Puerto Rico,Ponce
731,18.03831,-66.626344,Ponce,Puerto Rico,Ponce
732,18.021781,-66.613742,Ponce,Puerto Rico,Ponce
733,18.019331,-66.619165,Ponce,Puerto Rico,Ponce
734,17.999499,-66.643934,Ponce,Puerto Rico,Ponce
735,18.264872,-65.594769,Ceiba,Puerto Rico,Ceiba
736,18.102967,-66.139274,Cayey,Puerto Rico,Cayey
737,18.102967,-66.139274,Cayey,Puerto Rico,Cayey
738,18.359381,-65.611361,Fajardo,Puerto Rico,Fajardo
739,18.181469,-66.169519,Cidra,Puerto Rico,Cidra
740,18.331958,-65.63878,Puerto Real,Puerto Rico,Fajardo
741,18.162156,-65.753485,Punta Santiago,Puerto Rico,Humacao
742,18.264872,-65.594769,Roosevelt Roads,Puerto Rico,Ceiba
744,18.206329,-65.743058,Rio Blanco,Puerto Rico,Naguabo
745,18.367347,-65.816583,Rio Grande,Puerto Rico,Rio Grande
751,17.99852,-66.264825,Salinas,Puerto Rico,Salinas
754,18.187584,-65.962389,San Lorenzo,Puerto Rico,San Lorenzo
757,17.991233,-66.395543,Santa Isabel,Puerto Rico,Santa Isabel
765,18.123347,-65.460356,Vieques,Puerto Rico,Vieques
766,18.120519,-66.496607,Villalba,Puerto Rico,Villalba
767,18.045522,-65.886988,Yabucoa,Puerto Rico,Yabucoa
769,18.095992,-66.35081,Coamo,Puerto Rico,Coamo
771,18.196576,-65.87197,Las Piedras,Puerto Rico,Las Piedras
772,18.447406,-65.899357,Loiza,Puerto Rico,Loiza
773,18.366027,-65.708138,Luquillo,Puerto Rico,Luquillo
775,18.323736,-65.296467,Culebra,Puerto Rico,Culebra
777,18.206489,-65.901774,Juncos,Puerto Rico,Juncos
778,18.259092,-65.974641,Gurabo,Puerto Rico,Gurabo
780,18.001995,-66.607429,Coto Laurel,Puerto Rico,Ponce
782,18.224958,-66.219885,Comerio,Puerto Rico,Comerio
783,18.304369,-66.330525,Corozal,Puerto Rico,Corozal
784,17.99229,-66.139253,Guayama,Puerto Rico,Guayama
785,18.018822,-66.795603,Guayama,Puerto Rico,Guayanilla
786,18.128092,-66.268717,La Plata,Puerto Rico,Aibonito
791,18.138029,-65.788499,Humacao,Puerto Rico,Humacao
792,18.138029,-65.788499,Humacao,Puerto Rico,Humacao
794,18.200898,-66.307236,Barranquitas,Puerto Rico,Barranquitas
795,17.997367,-66.493218,Juana Diaz,Puerto Rico,Juana Diaz
801,18.322285,-64.963715,St Thomas,VI,Saint Thomas
802,18.322285,-64.963715,St Thomas,VI,Saint Thomas
803,18.322285,-64.963715,St Thomas,VI,Saint Thomas
804,18.322285,-64.963715,St Thomas,VI,Saint Thomas
805,18.322285,-64.963715,St Thomas,VI,Saint Thomas
820,17.734211,-64.734694,Christiansted,VI,Saint Croix
821,17.734211,-64.734694,Christiansted,VI,Saint Croix
822,17.734211,-64.734694,Christiansted,VI,Saint Croix
823,17.734211,-64.734694,Christiansted,VI,Saint Croix
824,17.734211,-64.734694,Christiansted,VI,Saint Croix
830,18.32816,-64.740737,St John,VI,Saint John
831,18.32816,-64.740737,St John,VI,Saint John
840,17.734211,-64.734694,Frederiksted,VI,Saint Croix
841,17.734211,-64.734694,Frederiksted,VI,Saint Croix
850,17.734211,-64.734694,Kingshill,VI,Saint Croix
851,17.734211,-64.734694,Kingshill,VI,Saint Croix
901,18.465901,-66.103568,San Juan,Puerto Rico,San Juan
902,18.410462,-66.060533,San Juan,Puerto Rico,San Juan
906,18.410462,-66.060533,San Juan,Puerto Rico,San Juan
907,18.451647,-66.077003,San Juan,Puerto Rico,San Juan
908,18.410462,-66.060533,San Juan,Puerto Rico,San Juan
909,18.443384,-66.068133,San Juan,Puerto Rico,San Juan
910,18.410462,-66.060533,San Juan,Puerto Rico,San Juan
911,18.450828,-66.057859,San Juan,Puerto Rico,San Juan
912,18.444187,-66.059859,San Juan,Puerto Rico,San Juan
913,18.450735,-66.043352,San Juan,Puerto Rico,San Juan
914,18.410462,-66.060533,San Juan,Puerto Rico,San Juan
915,18.437896,-66.048087,San Juan,Puerto Rico,San Juan
916,18.410462,-66.060533,San Juan,Puerto Rico,San Juan
917,18.422018,-66.050602,San Juan,Puerto Rico,San Juan
918,18.419069,-66.062319,San Juan,Puerto Rico,San Juan
919,18.410462,-66.060533,San Juan,Puerto Rico,San Juan
920,18.406808,-66.091885,San Juan,Puerto Rico,San Juan
921,18.390429,-66.066124,San Juan,Puerto Rico,San Juan
922,18.410462,-66.060533,San Juan,Puerto Rico,San Juan
923,18.410775,-66.036708,San Juan,Puerto Rico,San Juan
924,18.396392,-66.01146,San Juan,Puerto Rico,San Juan
925,18.401055,-66.049773,San Juan,Puerto Rico,San Juan
926,18.369376,-66.062804,San Juan,Puerto Rico,San Juan
927,18.385174,-66.071959,San Juan,Puerto Rico,San Juan
928,18.410462,-66.060533,San Juan,Puerto Rico,San Juan
929,18.410462,-66.060533,San Juan,Puerto Rico,San Juan
930,18.410462,-66.060533,San Juan,Puerto Rico,San Juan
931,18.410462,-66.060533,San Juan,Puerto Rico,San Juan
933,18.410462,-66.060533,San Juan,Puerto Rico,San Juan
934,18.34487,-66.166014,Fort Buchanan,Puerto Rico,Bayamon
935,18.410462,-66.060533,San Juan,Puerto Rico,San Juan
936,18.410462,-66.060533,San Juan,Puerto Rico,San Juan
937,18.410462,-66.060533,San Juan,Puerto Rico,San Juan
938,18.410462,-66.060533,San Juan,Puerto Rico,San Juan
939,18.410462,-66.060533,San Juan,Puerto Rico,San Juan
940,18.410462,-66.060533,San Juan,Puerto Rico,San Juan
949,18.431911,-66.199692,Toa Baja,Puerto Rico,Toa Baja
950,18.457761,-66.196503,Toa Baja,Puerto Rico,Toa Baja
951,18.457761,-66.196503,Toa Baja,Puerto Rico,Toa Baja
952,18.457761,-66.196503,Sabana Seca,Puerto Rico,Toa Baja
953,18.356795,-66.25701,Toa Alta,Puerto Rico,Toa Alta
954,18.358939,-66.258108,Toa Alta,Puerto Rico,Toa Alta
955,18.410462,-66.060533,San Juan,Puerto Rico,San Juan
956,18.326702,-66.174176,Bayamon,Puerto Rico,Bayamon
957,18.366645,-66.183907,Bayamon,Puerto Rico,Bayamon
958,18.34487,-66.166014,Bayamon,Puerto Rico,Bayamon
959,18.387058,-66.159044,Bayamon,Puerto Rico,Bayamon
960,18.34487,-66.166014,Bayamon,Puerto Rico,Bayamon
961,18.413195,-66.168651,Bayamon,Puerto Rico,Bayamon
962,18.437644,-66.140407,Catano,Puerto Rico,Catano
963,18.443217,-66.139293,Catano,Puerto Rico,Catano
965,18.428784,-66.11539,Guaynabo,Puerto Rico,Guaynabo
966,18.396815,-66.114889,Guaynabo,Puerto Rico,Guaynabo
968,18.410462,-66.060533,Guaynabo,Puerto Rico,San Juan
969,18.362322,-66.113729,Guaynabo,Puerto Rico,Guaynabo
970,18.359143,-66.112295,Guaynabo,Puerto Rico,Guaynabo
971,18.30942,-66.113606,Guaynabo,Puerto Rico,Guaynabo
975,18.410462,-66.060533,San Juan,Puerto Rico,San Juan
976,18.338133,-65.989229,Trujillo Alto,Puerto Rico,Trujillo Alto
977,18.337004,-65.990099,Trujillo Alto,Puerto Rico,Trujillo Alto
978,18.337004,-65.990099,Saint Just Contract,Puerto Rico,Trujillo Alto
979,18.410462,-66.060533,Carolina,Puerto Rico,San Juan
981,18.410462,-66.060533,Carolina,Puerto Rico,San Juan
982,18.410462,-66.060533,Carolina,Puerto Rico,San Juan
983,18.413452,-65.977659,Carolina,Puerto Rico,Carolina
984,18.393355,-65.972495,Carolina,Puerto Rico,Carolina
985,18.345741,-65.93888,Carolina,Puerto Rico,Carolina
986,18.393355,-65.972495,Carolina,Puerto Rico,Carolina
987,18.373466,-65.959932,Carolina,Puerto Rico,Carolina
988,18.393355,-65.972495,Carolina,Puerto Rico,Carolina
1001,42.140549,-72.788661,Agawam,Massachusetts,Hampden
1002,42.367092,-72.464571,Amherst,Massachusetts,Hampshire
1003,42.369562,-72.63599,Amherst,Massachusetts,Hampshire
1004,42.384494,-72.513183,Amherst,Massachusetts,Hampshire
1005,42.32916,-72.139465,Barre,Massachusetts,Worcester
1007,42.280267,-72.402056,Belchertown,Massachusetts,Hampshire
1008,42.177833,-72.958359,Blandford,Massachusetts,Hampden
1009,42.206092,-72.340486,Bondsville,Massachusetts,Hampden
1010,42.108585,-72.20448,Brimfield,Massachusetts,Hampden
1011,42.294259,-72.952776,Chester,Massachusetts,Hampden
1012,42.392274,-72.825607,Chesterfield,Massachusetts,Hampshire
1013,42.161492,-72.667341,Chicopee,Massachusetts,Hampden
1014,42.170731,-72.604842,Chicopee,Massachusetts,Hampden
1020,42.177492,-72.562563,Chicopee,Massachusetts,Hampden
1021,42.170731,-72.604842,Chicopee,Massachusetts,Hampden
1022,42.193392,-72.55436,Chicopee,Massachusetts,Hampden
1026,42.428617,-72.909841,Cummington,Massachusetts,Hampshire
1027,42.368303,-72.768839,Easthampton,Massachusetts,Hampshire
1028,42.062009,-72.49874,East Longmeadow,Massachusetts,Hampden
1029,42.190904,-73.051661,East Otis,Massachusetts,Berkshire
1030,42.189335,-72.79774,Feeding Hills,Massachusetts,Hampden
1031,42.352554,-72.205724,Gilbertville,Massachusetts,Worcester
1032,42.443837,-72.819446,Goshen,Massachusetts,Hampshire
1033,42.262285,-72.504086,Granby,Massachusetts,Hampshire
1034,42.112748,-72.952003,Granville,Massachusetts,Hampden
1035,42.356804,-72.576613,Hadley,Massachusetts,Hampshire
1036,42.067614,-72.417507,Hampden,Massachusetts,Hampden
1037,42.347856,-72.225251,Hardwick,Massachusetts,Worcester
1038,42.387269,-72.643081,Hatfield,Massachusetts,Hampshire
1039,42.35641,-72.682127,Haydenville,Massachusetts,Hampshire
1040,42.198291,-72.64207,Holyoke,Massachusetts,Hampden
1041,42.170731,-72.604842,Holyoke,Massachusetts,Hampden
1050,42.313427,-72.903677,Huntington,Massachusetts,Hampshire
1053,42.353838,-72.704385,Leeds,Massachusetts,Hampshire
1054,42.474681,-72.467543,Leverett,Massachusetts,Franklin
1056,42.173276,-72.627038,Ludlow,Massachusetts,Hampden
1057,42.095323,-72.282063,Monson,Massachusetts,Hampden
1059,42.369562,-72.63599,North Amherst,Massachusetts,Hampshire
1060,42.415154,-72.76927,Northampton,Massachusetts,Hampshire
1061,42.369562,-72.63599,Northampton,Massachusetts,Hampshire
1062,42.328838,-72.845227,Florence,Massachusetts,Hampshire
1063,42.317939,-72.640234,Northampton,Massachusetts,Hampshire
1066,42.406697,-72.633901,North Hatfield,Massachusetts,Hampshire
1068,42.346144,-72.058847,Oakham,Massachusetts,Worcester
1069,42.176131,-72.31457,Palmer,Massachusetts,Hampden
1070,42.448984,-72.958397,Plainfield,Massachusetts,Hampshire
1071,42.177432,-72.864558,Russell,Massachusetts,Hampden
1072,42.471562,-72.44017,Shutesbury,Massachusetts,Franklin
1073,42.230008,-72.728463,Southampton,Massachusetts,Hampshire
1074,42.375998,-72.149388,South Barre,Massachusetts,Worcester
1075,42.24984,-72.58152,South Hadley,Massachusetts,Hampshire
1077,42.066644,-72.541205,Southwick,Massachusetts,Hampden
1079,42.192892,-72.329574,Thorndike,Massachusetts,Hampden
1080,42.179805,-72.517813,Three Rivers,Massachusetts,Hampden
1081,42.061948,-72.213598,Wales,Massachusetts,Hampden
1082,42.377471,-72.548549,Ware,Massachusetts,Hampshire
1083,42.204027,-72.199439,Warren,Massachusetts,Worcester
1084,42.390303,-72.870857,West Chesterfield,Massachusetts,Hampshire
1085,42.14869,-72.501887,Westfield,Massachusetts,Hampden
1086,42.173428,-72.847964,Westfield,Massachusetts,Hampden
1088,42.390583,-72.646894,West Hatfield,Massachusetts,Hampshire
1089,42.125793,-72.645334,West Springfield,Massachusetts,Hampden
1090,42.170731,-72.604842,West Springfield,Massachusetts,Hampden
1092,42.202887,-72.229025,West Warren,Massachusetts,Worcester
1093,42.442673,-72.652511,Whately,Massachusetts,Franklin
1094,42.358201,-72.140846,Wheelwright,Massachusetts,Worcester
1095,42.125974,-72.489988,Wilbraham,Massachusetts,Hampden
1096,42.413069,-72.821653,Williamsburg,Massachusetts,Hampshire
1097,42.161743,-72.845912,Woronoco,Massachusetts,Hampden
1098,42.40494,-72.896133,Worthington,Massachusetts,Hampshire
1101,42.170731,-72.604842,Springfield,Massachusetts,Hampden
1102,42.170731,-72.604842,Springfield,Massachusetts,Hampden
1103,42.103044,-72.590783,Springfield,Massachusetts,Hampden
1104,42.128605,-72.567966,Springfield,Massachusetts,Hampden
1105,42.099793,-72.577732,Springfield,Massachusetts,Hampden
1106,42.049194,-72.567882,Longmeadow,Massachusetts,Hampden
1107,42.126237,-72.586733,Springfield,Massachusetts,Hampden
1108,42.080594,-72.558081,Springfield,Massachusetts,Hampden
1109,42.119293,-72.548981,Springfield,Massachusetts,Hampden
1111,42.170731,-72.604842,Springfield,Massachusetts,Hampden
1114,42.170731,-72.604842,Springfield,Massachusetts,Hampden
1115,42.102894,-72.591633,Springfield,Massachusetts,Hampden
1116,42.170731,-72.604842,Longmeadow,Massachusetts,Hampden
1118,42.093894,-72.523227,Springfield,Massachusetts,Hampden
1119,42.124943,-72.526705,Springfield,Massachusetts,Hampden
1128,42.094616,-72.487229,Springfield,Massachusetts,Hampden
1129,42.124485,-72.489479,Springfield,Massachusetts,Hampden
1133,42.170731,-72.604842,Springfield,Massachusetts,Hampden
1138,42.170731,-72.604842,Springfield,Massachusetts,Hampden
1139,42.170731,-72.604842,Springfield,Massachusetts,Hampden
1144,42.101796,-72.59151,Springfield,Massachusetts,Hampden
1151,42.150593,-72.51278,Indian Orchard,Massachusetts,Hampden
1152,42.170731,-72.604842,Springfield,Massachusetts,Hampden
1199,42.119943,-72.604983,Springfield,Massachusetts,Hampden
1201,42.479475,-73.24807,Pittsfield,Massachusetts,Berkshire
1202,42.3929,-73.228483,Pittsfield,Massachusetts,Berkshire
1203,42.3929,-73.228483,Pittsfield,Massachusetts,Berkshire
1220,42.385595,-73.172166,Adams,Massachusetts,Berkshire
1222,42.185969,-73.318695,Ashley Falls,Massachusetts,Berkshire
1223,42.3418,-73.103468,Becket,Massachusetts,Berkshire
1224,42.3929,-73.228483,Berkshire,Massachusetts,Berkshire
1225,42.482125,-73.127483,Cheshire,Massachusetts,Berkshire
1226,42.470296,-73.08895,Dalton,Massachusetts,Berkshire
1227,42.516145,-73.092852,Dalton,Massachusetts,Berkshire
1229,42.279292,-73.343545,Glendale,Massachusetts,Berkshire
1230,42.299392,-73.26665,Great Barrington,Massachusetts,Berkshire
1235,42.29237,-73.22164,Hinsdale,Massachusetts,Berkshire
1236,42.291299,-73.358798,Housatonic,Massachusetts,Berkshire
1237,42.487569,-73.235048,Lanesboro,Massachusetts,Berkshire
1238,42.369856,-73.267465,Lee,Massachusetts,Berkshire
1240,42.459202,-73.219858,Lenox,Massachusetts,Berkshire
1242,42.338594,-73.250891,Lenox Dale,Massachusetts,Berkshire
1243,42.356088,-73.010448,Middlefield,Massachusetts,Hampshire
1244,42.122827,-73.253983,Mill River,Massachusetts,Berkshire
1245,42.18669,-73.206498,Monterey,Massachusetts,Berkshire
1247,42.426974,-73.18632,North Adams,Massachusetts,Berkshire
1252,42.198648,-73.446234,North Egremont,Massachusetts,Berkshire
1253,42.213156,-73.090434,Otis,Massachusetts,Berkshire
1254,42.233105,-73.238358,Richmond,Massachusetts,Berkshire
1255,42.148975,-73.14861,Sandisfield,Massachusetts,Berkshire
1256,42.367341,-73.128528,Savoy,Massachusetts,Berkshire
1257,42.314564,-73.267694,Sheffield,Massachusetts,Berkshire
1258,42.128075,-73.36089,South Egremont,Massachusetts,Berkshire
1259,42.198712,-73.278543,Southfield,Massachusetts,Berkshire
1260,42.286586,-73.313274,South Lee,Massachusetts,Berkshire
1262,42.304604,-73.330001,Stockbridge,Massachusetts,Berkshire
1263,42.3929,-73.228483,Stockbridge,Massachusetts,Berkshire
1264,42.220001,-73.197865,Tyringham,Massachusetts,Berkshire
1266,42.360482,-73.265354,West Stockbridge,Massachusetts,Berkshire
1267,42.642075,-73.257699,Williamstown,Massachusetts,Berkshire
1270,42.443726,-73.116127,Windsor,Massachusetts,Berkshire
1301,42.601335,-72.623619,Greenfield,Massachusetts,Franklin
1302,42.522178,-72.624164,Greenfield,Massachusetts,Franklin
1330,42.562391,-72.738152,Ashfield,Massachusetts,Franklin
1331,42.547302,-72.183903,Athol,Massachusetts,Worcester
1337,42.62706,-72.642888,Bernardston,Massachusetts,Franklin
1338,42.573832,-72.769487,Buckland,Massachusetts,Franklin
1339,42.594252,-72.665507,Charlemont,Massachusetts,Franklin
1340,42.681539,-72.822986,Colrain,Massachusetts,Franklin
1341,42.590824,-72.70976,Conway,Massachusetts,Franklin
1342,42.54723,-72.607679,Deerfield,Massachusetts,Franklin
1343,42.642666,-72.986231,Drury,Massachusetts,Berkshire
1344,42.627072,-72.553654,Erving,Massachusetts,Franklin
1346,42.618011,-72.788896,Heath,Massachusetts,Franklin
1347,42.556558,-72.518104,Lake Pleasant,Massachusetts,Franklin
1349,42.621412,-72.705633,Turners Falls,Massachusetts,Franklin
1350,42.721456,-72.976204,Monroe Bridge,Massachusetts,Franklin
1351,42.548107,-72.48693,Montague,Massachusetts,Franklin
1354,42.522178,-72.624164,Northfield,Massachusetts,Franklin
1355,42.518718,-72.534371,New Salem,Massachusetts,Franklin
1360,42.614152,-72.528209,Northfield,Massachusetts,Franklin
1364,42.578325,-72.556589,Orange,Massachusetts,Franklin
1366,42.459632,-72.182962,Petersham,Massachusetts,Worcester
1367,42.683065,-72.715667,Rowe,Massachusetts,Franklin
1368,42.672182,-72.196376,Royalston,Massachusetts,Worcester
1369,42.522178,-72.624164,Shattuckville,Massachusetts,Franklin
1370,42.588812,-72.758781,Shelburne Falls,Massachusetts,Franklin
1373,42.464522,-72.682346,South Deerfield,Massachusetts,Franklin
1375,42.565346,-72.70094,Sunderland,Massachusetts,Franklin
1376,42.654878,-72.718123,Turners Falls,Massachusetts,Franklin
1378,42.667059,-72.339655,Warwick,Massachusetts,Franklin
1379,42.581007,-72.437179,Wendell,Massachusetts,Franklin
1380,42.553431,-72.392694,Wendell Depot,Massachusetts,Franklin
1420,42.583689,-71.816767,Fitchburg,Massachusetts,Worcester
1430,42.654906,-71.920942,Ashburnham,Massachusetts,Worcester
1431,42.446396,-71.459405,Ashby,Massachusetts,Middlesex
1432,42.446396,-71.459405,Ayer,Massachusetts,Middlesex
1436,42.601427,-72.083838,Baldwinville,Massachusetts,Worcester
1438,42.551681,-72.029434,East Templeton,Massachusetts,Worcester
1440,42.582529,-72.025884,Gardner,Massachusetts,Worcester
1441,42.364807,-71.896868,Westminster,Massachusetts,Worcester
1450,42.446396,-71.459405,Groton,Massachusetts,Middlesex
1451,42.500187,-71.575864,Harvard,Massachusetts,Worcester
1452,42.483895,-72.011516,Hubbardston,Massachusetts,Worcester
1453,42.471316,-71.837509,Leominster,Massachusetts,Worcester
1460,42.446396,-71.459405,Littleton,Massachusetts,Middlesex
1462,42.583322,-71.752266,Lunenburg,Massachusetts,Worcester
1463,42.446396,-71.459405,Pepperell,Massachusetts,Middlesex
1464,42.446396,-71.459405,Shirley,Massachusetts,Middlesex
1467,42.487056,-71.613078,Still River,Massachusetts,Worcester
1468,42.555059,-72.072285,Templeton,Massachusetts,Worcester
1469,42.446396,-71.459405,Townsend,Massachusetts,Middlesex
1470,42.446396,-71.459405,Groton,Massachusetts,Middlesex
1471,42.446396,-71.459405,Groton,Massachusetts,Middlesex
1472,42.446396,-71.459405,West Groton,Massachusetts,Middlesex
1473,42.549489,-71.913219,Westminster,Massachusetts,Worcester
1474,42.446396,-71.459405,West Townsend,Massachusetts,Middlesex
1475,42.661612,-72.047876,Winchendon,Massachusetts,Worcester
1477,42.364807,-71.896868,Winchendon Springs,Massachusetts,Worcester
1501,42.184835,-71.947184,Auburn,Massachusetts,Worcester
1503,42.3129,-71.841656,Berlin,Massachusetts,Worcester
1504,42.114078,-71.799785,Blackstone,Massachusetts,Worcester
1505,42.300037,-71.943458,Boylston,Massachusetts,Worcester
1506,42.19169,-72.105011,Brookfield,Massachusetts,Worcester
1507,42.13277,-71.972627,Charlton,Massachusetts,Worcester
1508,42.109748,-72.079455,Charlton City,Massachusetts,Worcester
1509,42.364807,-71.896868,Charlton Depot,Massachusetts,Worcester
1510,42.413972,-71.687523,Clinton,Massachusetts,Worcester
1515,42.205311,-72.049907,East Brookfield,Massachusetts,Worcester
1516,42.113076,-71.891139,Douglas,Massachusetts,Worcester
1517,42.364807,-71.896868,East Princeton,Massachusetts,Worcester
1518,42.106405,-72.114045,Fiskdale,Massachusetts,Worcester
1519,42.203944,-71.682862,Grafton,Massachusetts,Worcester
1520,42.336791,-71.845316,Holden,Massachusetts,Worcester
1521,42.061063,-72.163991,Holland,Massachusetts,Hampden
1522,42.264629,-71.795442,Jefferson,Massachusetts,Worcester
1523,42.427188,-71.91177,Lancaster,Massachusetts,Worcester
1524,42.238192,-72.012379,Leicester,Massachusetts,Worcester
1525,42.364807,-71.896868,Linwood,Massachusetts,Worcester
1526,42.364807,-71.896868,Manchaug,Massachusetts,Worcester
1527,42.255642,-71.819961,Millbury,Massachusetts,Worcester
1529,42.124662,-71.846943,Millville,Massachusetts,Worcester
1531,42.320938,-72.128644,New Braintree,Massachusetts,Worcester
1532,42.322118,-71.64282,Northborough,Massachusetts,Worcester
1534,42.207191,-71.856807,Northbridge,Massachusetts,Worcester
1535,42.275382,-72.089338,North Brookfield,Massachusetts,Worcester
1536,42.407556,-71.860402,North Grafton,Massachusetts,Worcester
1537,42.166241,-71.891052,North Oxford,Massachusetts,Worcester
1538,42.364807,-71.896868,North Uxbridge,Massachusetts,Worcester
1540,42.109223,-71.855444,Oxford,Massachusetts,Worcester
1541,42.451926,-71.880057,Princeton,Massachusetts,Worcester
1542,42.220085,-71.914361,Rochdale,Massachusetts,Worcester
1543,42.383516,-71.95463,Rutland,Massachusetts,Worcester
1545,42.286992,-71.715313,Shrewsbury,Massachusetts,Worcester
1546,42.364807,-71.896868,Shrewsbury,Massachusetts,Worcester
1550,42.129251,-72.031155,Southbridge,Massachusetts,Worcester
1560,42.176544,-71.681912,South Grafton,Massachusetts,Worcester
1561,42.443539,-71.686137,South Lancaster,Massachusetts,Worcester
1562,42.254837,-72.065612,Spencer,Massachusetts,Worcester
1564,42.366765,-71.939375,Sterling,Massachusetts,Worcester
1566,42.10273,-72.080996,Sturbridge,Massachusetts,Worcester
1568,42.175591,-71.603197,Upton,Massachusetts,Worcester
1569,42.059736,-71.638438,Uxbridge,Massachusetts,Worcester
1570,42.1351,-71.994169,Webster,Massachusetts,Worcester
1571,42.059189,-71.937037,Dudley,Massachusetts,Worcester
1580,42.364807,-71.896868,Westborough,Massachusetts,Worcester
1581,42.255222,-71.845865,Westborough,Massachusetts,Worcester
1582,42.364807,-71.896868,Westborough,Massachusetts,Worcester
1583,42.362783,-71.781215,West Boylston,Massachusetts,Worcester
1585,42.235638,-72.172523,West Brookfield,Massachusetts,Worcester
1586,42.364807,-71.896868,West Millbury,Massachusetts,Worcester
1588,42.166554,-71.899484,Whitinsville,Massachusetts,Worcester
1590,42.126575,-71.755193,Sutton,Massachusetts,Worcester
1601,42.265275,-71.879415,Worcester,Massachusetts,Worcester
1602,42.274595,-71.846966,Worcester,Massachusetts,Worcester
1603,42.245442,-71.839257,Worcester,Massachusetts,Worcester
1604,42.247955,-71.76678,Worcester,Massachusetts,Worcester
1605,42.288792,-71.796128,Worcester,Massachusetts,Worcester
1606,42.311834,-71.794465,Worcester,Massachusetts,Worcester
1607,42.226452,-71.792506,Worcester,Massachusetts,Worcester
1608,42.293501,-71.925696,Worcester,Massachusetts,Worcester
1609,42.282565,-71.827685,Worcester,Massachusetts,Worcester
1610,42.246483,-71.808915,Worcester,Massachusetts,Worcester
1611,42.239392,-71.878716,Cherry Valley,Massachusetts,Worcester
1612,42.304675,-71.892875,Paxton,Massachusetts,Worcester
1613,42.293316,-71.801971,Worcester,Massachusetts,Worcester
1614,42.364807,-71.896868,Worcester,Massachusetts,Worcester
1615,42.364807,-71.896868,Worcester,Massachusetts,Worcester
1653,42.364807,-71.896868,Worcester,Massachusetts,Worcester
1654,42.364807,-71.896868,Worcester,Massachusetts,Worcester
1655,42.364807,-71.896868,Worcester,Massachusetts,Worcester
1701,42.446396,-71.459405,Framingham,Massachusetts,Middlesex
1702,42.446396,-71.459405,Framingham,Massachusetts,Middlesex
1703,42.446396,-71.459405,Framingham,Massachusetts,Middlesex
1704,42.446396,-71.459405,Framingham,Massachusetts,Middlesex
1705,42.446396,-71.459405,Framingham,Massachusetts,Middlesex
1718,42.446396,-71.459405,Village Of Nagog Woods,Massachusetts,Middlesex
1719,42.446396,-71.459405,Boxborough,Massachusetts,Middlesex
1720,42.446396,-71.459405,Acton,Massachusetts,Middlesex
1721,42.446396,-71.459405,Ashland,Massachusetts,Middlesex
1730,42.446396,-71.459405,Bedford,Massachusetts,Middlesex
1731,42.446396,-71.459405,Hanscom Afb,Massachusetts,Middlesex
1740,42.436043,-71.605916,Bolton,Massachusetts,Worcester
1741,42.446396,-71.459405,Carlisle,Massachusetts,Middlesex
1742,42.446396,-71.459405,Concord,Massachusetts,Middlesex
1745,42.293442,-71.502762,Fayville,Massachusetts,Worcester
1746,42.446396,-71.459405,Holliston,Massachusetts,Middlesex
1747,42.127515,-71.533138,Hopedale,Massachusetts,Worcester
1748,42.446396,-71.459405,Hopkinton,Massachusetts,Middlesex
1749,42.446396,-71.459405,Hudson,Massachusetts,Middlesex
1752,42.446396,-71.459405,Marlborough,Massachusetts,Middlesex
1754,42.446396,-71.459405,Maynard,Massachusetts,Middlesex
1756,42.100352,-71.546961,Mendon,Massachusetts,Worcester
1757,42.147087,-71.528085,Milford,Massachusetts,Worcester
1760,42.446396,-71.459405,Natick,Massachusetts,Middlesex
1770,42.446396,-71.459405,Sherborn,Massachusetts,Middlesex
1772,42.296842,-71.533229,Southborough,Massachusetts,Worcester
1773,42.446396,-71.459405,Lincoln,Massachusetts,Middlesex
1775,42.446396,-71.459405,Stow,Massachusetts,Middlesex
1776,42.446396,-71.459405,Sudbury,Massachusetts,Middlesex
1778,42.446396,-71.459405,Wayland,Massachusetts,Middlesex
1784,42.446396,-71.459405,Woodville,Massachusetts,Middlesex
1801,42.488595,-71.157271,Woburn,Massachusetts,Middlesex
1803,42.504844,-71.201539,Burlington,Massachusetts,Middlesex
1805,42.446396,-71.459405,Burlington,Massachusetts,Middlesex
1806,42.446396,-71.459405,Woburn,Massachusetts,Middlesex
1807,42.446396,-71.459405,Woburn,Massachusetts,Middlesex
1808,42.446396,-71.459405,Woburn,Massachusetts,Middlesex
1810,42.647991,-71.165685,Andover,Massachusetts,Essex
1812,42.647191,-71.184202,Andover,Massachusetts,Essex
1813,42.446396,-71.459405,Woburn,Massachusetts,Middlesex
1815,42.446396,-71.459405,Woburn,Massachusetts,Middlesex
1821,42.446396,-71.459405,Billerica,Massachusetts,Middlesex
1822,42.446396,-71.459405,Billerica,Massachusetts,Middlesex
1824,42.446396,-71.459405,Chelmsford,Massachusetts,Middlesex
1826,42.446396,-71.459405,Dracut,Massachusetts,Middlesex
1827,42.446396,-71.459405,Dunstable,Massachusetts,Middlesex
1830,42.792639,-71.072501,Haverhill,Massachusetts,Essex
1831,42.771095,-71.122054,Haverhill,Massachusetts,Essex
1832,42.789627,-71.126562,Haverhill,Massachusetts,Essex
1833,42.72377,-70.981298,Georgetown,Massachusetts,Essex
1834,42.751074,-71.021437,Groveland,Massachusetts,Essex
1835,42.752844,-71.084301,Haverhill,Massachusetts,Essex
1840,42.70734,-71.161052,Lawrence,Massachusetts,Essex
1841,42.70979,-71.164402,Lawrence,Massachusetts,Essex
1842,42.635443,-70.879123,Lawrence,Massachusetts,Essex
1843,42.71037,-71.088303,Lawrence,Massachusetts,Essex
1844,42.73184,-71.186915,Methuen,Massachusetts,Essex
1845,42.672835,-71.087689,North Andover,Massachusetts,Essex
1850,42.446396,-71.459405,Lowell,Massachusetts,Middlesex
1851,42.446396,-71.459405,Lowell,Massachusetts,Middlesex
1852,42.446396,-71.459405,Lowell,Massachusetts,Middlesex
1853,42.446396,-71.459405,Lowell,Massachusetts,Middlesex
1854,42.446396,-71.459405,Lowell,Massachusetts,Middlesex
1860,42.802441,-71.0896,Merrimac,Massachusetts,Essex
1862,42.446396,-71.459405,North Billerica,Massachusetts,Middlesex
1863,42.446396,-71.459405,North Chelmsford,Massachusetts,Middlesex
1864,42.581332,-71.083725,North Reading,Massachusetts,Middlesex
1865,42.446396,-71.459405,Nutting Lake,Massachusetts,Middlesex
1866,42.446396,-71.459405,Pinehurst,Massachusetts,Middlesex
1867,42.537065,-71.107172,Reading,Massachusetts,Middlesex
1876,42.446396,-71.459405,Tewksbury,Massachusetts,Middlesex
1879,42.446396,-71.459405,Tyngsboro,Massachusetts,Middlesex
1880,42.499891,-71.068829,Wakefield,Massachusetts,Middlesex
1885,42.635443,-70.879123,West Boxford,Massachusetts,Essex
1886,42.446396,-71.459405,Westford,Massachusetts,Middlesex
1887,42.561782,-71.173888,Wilmington,Massachusetts,Middlesex
1888,42.446396,-71.459405,Woburn,Massachusetts,Middlesex
1889,42.571633,-71.109646,North Reading,Massachusetts,Middlesex
1890,42.454545,-71.148779,Winchester,Massachusetts,Middlesex
1899,42.635443,-70.879123,Andover,Massachusetts,Essex
1901,42.461246,-70.946743,Lynn,Massachusetts,Essex
1902,42.473195,-70.928593,Lynn,Massachusetts,Essex
1903,42.635443,-70.879123,Lynn,Massachusetts,Essex
1904,42.488896,-70.964694,Lynn,Massachusetts,Essex
1905,42.469395,-70.972844,Lynn,Massachusetts,Essex
1906,42.472112,-70.997794,Saugus,Massachusetts,Essex
1907,42.513295,-70.905893,Swampscott,Massachusetts,Essex
1908,42.427296,-70.922442,Nahant,Massachusetts,Essex
1910,42.454796,-70.974694,Lynn,Massachusetts,Essex
1913,42.853539,-70.948211,Amesbury,Massachusetts,Essex
1915,42.565145,-70.853843,Beverly,Massachusetts,Essex
1921,42.683256,-71.017403,Boxford,Massachusetts,Essex
1922,42.763216,-70.92812,Byfield,Massachusetts,Essex
1923,42.577188,-70.949245,Danvers,Massachusetts,Essex
1929,42.62781,-70.780576,Essex,Massachusetts,Essex
1930,42.630011,-70.694179,Gloucester,Massachusetts,Essex
1931,42.635443,-70.879123,Gloucester,Massachusetts,Essex
1936,42.635443,-70.879123,Hamilton,Massachusetts,Essex
1937,42.635443,-70.879123,Hathorne,Massachusetts,Essex
1938,42.68571,-70.864132,Ipswich,Massachusetts,Essex
1940,42.533732,-71.028775,Lynnfield,Massachusetts,Essex
1944,42.579503,-70.755062,Manchester,Massachusetts,Essex
1945,42.56142,-70.770768,Marblehead,Massachusetts,Essex
1949,42.644942,-71.087905,Middleton,Massachusetts,Essex
1950,42.80965,-70.873196,Newburyport,Massachusetts,Essex
1951,42.777524,-70.867246,Newbury,Massachusetts,Essex
1952,42.851234,-70.865667,Salisbury,Massachusetts,Essex
1960,42.536996,-70.973646,Peabody,Massachusetts,Essex
1961,42.635443,-70.879123,Peabody,Massachusetts,Essex
1965,42.558113,-70.825743,Prides Crossing,Massachusetts,Essex
1966,42.657866,-70.618057,Rockport,Massachusetts,Essex
1969,42.716155,-70.892754,Rowley,Massachusetts,Essex
1970,42.512946,-70.904237,Salem,Massachusetts,Essex
1971,42.635443,-70.879123,Salem,Massachusetts,Essex
1982,42.626664,-70.851125,South Hamilton,Massachusetts,Essex
1983,42.661793,-70.954487,Topsfield,Massachusetts,Essex
1984,42.597691,-70.8732,Wenham,Massachusetts,Essex
1985,42.79414,-70.971068,West Newbury,Massachusetts,Essex
2018,41.970474,-70.701357,Accord,Massachusetts,Plymouth
2019,42.076501,-71.470464,Bellingham,Massachusetts,Norfolk
2020,42.081825,-70.643868,Brant Rock,Massachusetts,Plymouth
2021,42.179146,-71.121185,Canton,Massachusetts,Norfolk
2025,42.233938,-70.815826,Cohasset,Massachusetts,Norfolk
2026,42.244733,-71.181141,Dedham,Massachusetts,Norfolk
2027,42.180048,-71.08923,Dedham,Massachusetts,Norfolk
2030,42.236114,-71.283072,Dover,Massachusetts,Norfolk
2031,41.998799,-71.200894,East Mansfield,Massachusetts,Bristol
2032,42.153786,-71.21455,East Walpole,Massachusetts,Norfolk
2035,42.062204,-71.235774,Foxboro,Massachusetts,Norfolk
2038,42.08868,-71.404814,Franklin,Massachusetts,Norfolk
2040,41.970474,-70.701357,Greenbush,Massachusetts,Plymouth
2041,42.069642,-70.649075,Green Harbor,Massachusetts,Plymouth
2043,42.212105,-70.884989,Hingham,Massachusetts,Plymouth
2044,41.970474,-70.701357,Hingham,Massachusetts,Plymouth
2045,42.284413,-70.873659,Hull,Massachusetts,Plymouth
2047,42.142836,-70.69353,Humarock,Massachusetts,Plymouth
2048,42.013182,-71.218373,Mansfield,Massachusetts,Bristol
2050,42.111805,-70.710744,Marshfield,Massachusetts,Plymouth
2051,42.151202,-70.734146,Marshfield Hills,Massachusetts,Plymouth
2052,42.181265,-71.309934,Medfield,Massachusetts,Norfolk
2053,42.156282,-71.427663,Medway,Massachusetts,Norfolk
2054,42.165249,-71.36126,Millis,Massachusetts,Norfolk
2055,41.970474,-70.701357,Minot,Massachusetts,Plymouth
2056,42.117511,-71.331793,Norfolk,Massachusetts,Norfolk
2059,41.970474,-70.701357,North Marshfield,Massachusetts,Plymouth
2060,41.970474,-70.701357,North Scituate,Massachusetts,Plymouth
2061,42.154145,-70.823035,Norwell,Massachusetts,Plymouth
2062,42.182798,-71.196277,Norwood,Massachusetts,Norfolk
2065,42.097219,-70.651567,Ocean Bluff,Massachusetts,Plymouth
2066,42.207254,-70.770188,Scituate,Massachusetts,Plymouth
2067,42.105288,-71.184785,Sharon,Massachusetts,Norfolk
2070,42.180048,-71.08923,Sheldonville,Massachusetts,Norfolk
2071,42.100399,-71.270933,South Walpole,Massachusetts,Norfolk
2072,42.118416,-71.105733,Stoughton,Massachusetts,Norfolk
2081,42.148624,-71.255533,Walpole,Massachusetts,Norfolk
2090,42.220548,-71.199238,Westwood,Massachusetts,Norfolk
2093,42.054311,-71.371169,Wrentham,Massachusetts,Norfolk
2101,42.370567,-71.026964,Boston,Massachusetts,Suffolk
2102,42.338947,-70.919635,Boston,Massachusetts,Suffolk
2103,42.338947,-70.919635,Boston,Massachusetts,Suffolk
2104,42.338947,-70.919635,Boston,Massachusetts,Suffolk
2105,42.338947,-70.919635,Boston,Massachusetts,Suffolk
2106,42.354318,-71.073449,Boston,Massachusetts,Suffolk
2107,42.338947,-70.919635,Boston,Massachusetts,Suffolk
2108,42.353806,-71.102446,Boston,Massachusetts,Suffolk
2109,42.360027,-71.054495,Boston,Massachusetts,Suffolk
2110,42.352847,-71.051466,Boston,Massachusetts,Suffolk
2111,42.351047,-71.059365,Boston,Massachusetts,Suffolk
2112,42.338947,-70.919635,Boston,Massachusetts,Suffolk
2113,42.365398,-71.055001,Boston,Massachusetts,Suffolk
2114,42.362097,-71.023661,Boston,Massachusetts,Suffolk
2115,42.342043,-71.096848,Boston,Massachusetts,Suffolk
2116,42.347207,-71.086095,Boston,Massachusetts,Suffolk
2117,42.338947,-70.919635,Boston,Massachusetts,Suffolk
2118,42.336162,-71.072854,Boston,Massachusetts,Suffolk
2119,42.323077,-71.084608,Boston,Massachusetts,Suffolk
2120,42.332484,-71.096416,Boston,Massachusetts,Suffolk
2121,42.307098,-71.081645,Boston,Massachusetts,Suffolk
2122,42.29658,-71.055215,Boston,Massachusetts,Suffolk
2123,42.338947,-70.919635,Boston,Massachusetts,Suffolk
2124,42.286784,-71.071045,Boston,Massachusetts,Suffolk
2125,42.31476,-71.067244,Boston,Massachusetts,Suffolk
2126,42.301247,-71.105195,Mattapan,Massachusetts,Suffolk
2127,42.329023,-71.020343,Boston,Massachusetts,Suffolk
2128,42.364197,-71.025694,Boston,Massachusetts,Suffolk
2129,42.382588,-71.065287,Charlestown,Massachusetts,Suffolk
2130,42.309661,-71.121097,Jamaica Plain,Massachusetts,Suffolk
2131,42.284197,-71.120896,Roslindale,Massachusetts,Suffolk
2132,42.277897,-71.155833,West Roxbury,Massachusetts,Suffolk
2133,42.338947,-70.919635,Boston,Massachusetts,Suffolk
2134,42.357169,-71.112646,Allston,Massachusetts,Suffolk
2135,42.349768,-71.104888,Brighton,Massachusetts,Suffolk
2136,42.254248,-71.129321,Hyde Park,Massachusetts,Suffolk
2137,42.338947,-70.919635,Readville,Massachusetts,Suffolk
2138,42.380442,-71.132947,Cambridge,Massachusetts,Middlesex
2139,42.365146,-71.101842,Cambridge,Massachusetts,Middlesex
2140,42.393246,-71.133833,Cambridge,Massachusetts,Middlesex
2141,42.368673,-71.083596,Cambridge,Massachusetts,Middlesex
2142,42.36284,-71.084814,Cambridge,Massachusetts,Middlesex
2143,42.38092,-71.098896,Somerville,Massachusetts,Middlesex
2144,42.402696,-71.12022,Somerville,Massachusetts,Middlesex
2145,42.391046,-71.095146,Somerville,Massachusetts,Middlesex
2148,42.436545,-71.085396,Malden,Massachusetts,Middlesex
2149,42.407396,-71.051183,Everett,Massachusetts,Middlesex
2150,42.378197,-71.038894,Chelsea,Massachusetts,Suffolk
2151,42.366303,-71.020494,Revere,Massachusetts,Suffolk
2152,42.378447,-70.981679,Winthrop,Massachusetts,Suffolk
2153,42.446396,-71.459405,Medford,Massachusetts,Middlesex
2155,42.422095,-71.109297,Medford,Massachusetts,Middlesex
2156,42.446396,-71.459405,West Medford,Massachusetts,Middlesex
2163,42.32532,-71.112159,Boston,Massachusetts,Suffolk
2169,42.241799,-71.006042,Quincy,Massachusetts,Norfolk
2170,42.267248,-71.016742,Quincy,Massachusetts,Norfolk
2171,42.284898,-71.014243,Quincy,Massachusetts,Norfolk
2176,42.458995,-71.053095,Melrose,Massachusetts,Middlesex
2177,42.446396,-71.459405,Melrose,Massachusetts,Middlesex
2180,42.474595,-71.098146,Stoneham,Massachusetts,Middlesex
2184,42.202216,-71.005192,Braintree,Massachusetts,Norfolk
2185,42.180048,-71.08923,Braintree,Massachusetts,Norfolk
2186,42.240598,-71.078494,Milton,Massachusetts,Norfolk
2187,42.180048,-71.08923,Milton Village,Massachusetts,Norfolk
2188,42.20794,-70.95514,Weymouth,Massachusetts,Norfolk
2189,42.210649,-70.932318,Weymouth,Massachusetts,Norfolk
2190,42.167841,-70.95074,Weymouth,Massachusetts,Norfolk
2191,42.251499,-70.94484,Weymouth,Massachusetts,Norfolk
2196,42.338947,-70.919635,Boston,Massachusetts,Suffolk
2199,42.347247,-71.082395,Boston,Massachusetts,Suffolk
2201,42.338947,-70.919635,Boston,Massachusetts,Suffolk
2202,42.361094,-71.061814,Boston,Massachusetts,Suffolk
2203,42.361485,-71.060364,Boston,Massachusetts,Suffolk
2204,42.338947,-70.919635,Boston,Massachusetts,Suffolk
2205,42.350334,-71.053877,Boston,Massachusetts,Suffolk
2206,42.338947,-70.919635,Boston,Massachusetts,Suffolk
2207,42.338947,-70.919635,Boston,Massachusetts,Suffolk
2208,42.338947,-70.919635,Boston,Massachusetts,Suffolk
2209,42.338947,-70.919635,Boston,Massachusetts,Suffolk
2210,42.347547,-71.040645,Boston,Massachusetts,Suffolk
2211,42.338947,-70.919635,Boston,Massachusetts,Suffolk
2212,42.446396,-71.459405,Boston,Massachusetts,Middlesex
2215,42.345079,-71.107653,Boston,Massachusetts,Suffolk
2216,42.338947,-70.919635,Boston,Massachusetts,Suffolk
2217,42.338947,-70.919635,Boston,Massachusetts,Suffolk
2222,42.364381,-71.063314,Boston,Massachusetts,Suffolk
2228,,,East Boston,Massachusetts,Suffolk
2238,42.446396,-71.459405,Cambridge,Massachusetts,Middlesex
2239,42.446396,-71.459405,Cambridge,Massachusetts,Middlesex
2241,42.338947,-70.919635,Boston,Massachusetts,Suffolk
2266,42.338947,-70.919635,Boston,Massachusetts,Suffolk
2269,42.180048,-71.08923,Quincy,Massachusetts,Norfolk
2283,42.338947,-70.919635,Boston,Massachusetts,Suffolk
2284,42.338947,-70.919635,Boston,Massachusetts,Suffolk
2293,42.338947,-70.919635,Boston,Massachusetts,Suffolk
2295,42.338947,-70.919635,Boston,Massachusetts,Suffolk
2297,42.338947,-70.919635,Boston,Massachusetts,Suffolk
2301,42.079399,-71.03999,Brockton,Massachusetts,Plymouth
2302,42.08475,-71.000189,Brockton,Massachusetts,Plymouth
2303,41.970474,-70.701357,Brockton,Massachusetts,Plymouth
2304,41.970474,-70.701357,Brockton,Massachusetts,Plymouth
2305,41.970474,-70.701357,Brockton,Massachusetts,Plymouth
2322,42.126049,-71.048216,Avon,Massachusetts,Norfolk
2324,41.973741,-70.976558,Bridgewater,Massachusetts,Plymouth
2325,41.98725,-70.972786,Bridgewater,Massachusetts,Plymouth
2327,42.040708,-70.827245,Bryantville,Massachusetts,Plymouth
2330,41.896238,-70.759689,Carver,Massachusetts,Plymouth
2331,41.970474,-70.701357,Duxbury,Massachusetts,Plymouth
2332,42.052985,-70.710808,Duxbury,Massachusetts,Plymouth
2333,42.02285,-70.931056,East Bridgewater,Massachusetts,Plymouth
2334,42.023528,-71.132397,Easton,Massachusetts,Bristol
2337,42.022225,-70.931588,Elmwood,Massachusetts,Plymouth
2338,41.988351,-70.860578,Halifax,Massachusetts,Plymouth
2339,42.123534,-70.851048,Hanover,Massachusetts,Plymouth
2340,42.123534,-70.851048,Hanover,Massachusetts,Plymouth
2341,42.055701,-70.875936,Hanson,Massachusetts,Plymouth
2343,42.144424,-71.00289,Holbrook,Massachusetts,Norfolk
2344,41.970474,-70.701357,Middleboro,Massachusetts,Plymouth
2345,41.888198,-70.581029,Manomet,Massachusetts,Plymouth
2346,41.915054,-70.882035,Middleboro,Massachusetts,Plymouth
2347,41.843757,-70.959981,Lakeville,Massachusetts,Plymouth
2348,41.970474,-70.701357,Middleboro,Massachusetts,Plymouth
2349,41.970474,-70.701357,Middleboro,Massachusetts,Plymouth
2350,42.018525,-70.847486,Monponsett,Massachusetts,Plymouth
2351,42.11749,-70.959888,Abington,Massachusetts,Plymouth
2355,41.916918,-70.801331,North Carver,Massachusetts,Plymouth
2356,42.053408,-71.12033,North Easton,Massachusetts,Bristol
2357,42.064499,-71.087091,North Easton,Massachusetts,Bristol
2358,41.95351,-70.713109,North Pembroke,Massachusetts,Plymouth
2359,42.065702,-70.800778,Pembroke,Massachusetts,Plymouth
2360,41.886207,-70.638717,Plymouth,Massachusetts,Plymouth
2361,41.970474,-70.701357,Plymouth,Massachusetts,Plymouth
2362,41.970474,-70.701357,Plymouth,Massachusetts,Plymouth
2364,41.979405,-70.744813,Kingston,Massachusetts,Plymouth
2366,41.850087,-70.704431,South Carver,Massachusetts,Plymouth
2367,41.96914,-70.812299,Plympton,Massachusetts,Plymouth
2368,42.171467,-71.055602,Randolph,Massachusetts,Norfolk
2370,41.954199,-70.885095,Rockland,Massachusetts,Plymouth
2375,42.023199,-71.111091,South Easton,Massachusetts,Bristol
2379,42.02165,-71.023588,West Bridgewater,Massachusetts,Plymouth
2381,41.931602,-70.561051,White Horse Beach,Massachusetts,Plymouth
2382,42.0785,-70.940837,Whitman,Massachusetts,Plymouth
2420,42.45631,-71.21665,Lexington,Massachusetts,Middlesex
2421,42.442567,-71.226453,Lexington,Massachusetts,Middlesex
2445,42.318097,-71.143697,Brookline,Massachusetts,Norfolk
2446,42.343097,-71.123046,Brookline,Massachusetts,Norfolk
2447,42.180048,-71.08923,Brookline Village,Massachusetts,Norfolk
2451,42.398588,-71.24505,Waltham,Massachusetts,Middlesex
2452,42.394319,-71.218049,Waltham,Massachusetts,Middlesex
2453,42.365396,-71.23165,Waltham,Massachusetts,Middlesex
2454,42.356719,-71.250479,Waltham,Massachusetts,Middlesex
2455,,,North Waltham,Massachusetts,Middlesex
2456,42.446396,-71.459405,New Town,Massachusetts,Middlesex
2457,42.180048,-71.08923,Babson Park,Massachusetts,Norfolk
2458,42.385096,-71.208399,Newton,Massachusetts,Middlesex
2459,42.334146,-71.183298,Newton Center,Massachusetts,Middlesex
2460,42.374296,-71.182371,Newtonville,Massachusetts,Middlesex
2461,42.361196,-71.205349,Newton Highlands,Massachusetts,Middlesex
2462,42.349496,-71.209699,Newton Lower Falls,Massachusetts,Middlesex
2464,42.36599,-71.221849,Newton Upper Falls,Massachusetts,Middlesex
2465,42.378145,-71.213199,West Newton,Massachusetts,Middlesex
2466,42.346696,-71.224957,Auburndale,Massachusetts,Middlesex
2467,42.357564,-71.211649,Chestnut Hill,Massachusetts,Middlesex
2468,42.327146,-71.231534,Waban,Massachusetts,Middlesex
2471,42.446396,-71.459405,Watertown,Massachusetts,Middlesex
2472,42.363096,-71.201398,Watertown,Massachusetts,Middlesex
2474,42.417595,-71.159696,Arlington,Massachusetts,Middlesex
2475,42.446396,-71.459405,Arlington Heights,Massachusetts,Middlesex
2476,42.379146,-71.184299,Arlington,Massachusetts,Middlesex
2477,42.446396,-71.459405,Watertown,Massachusetts,Middlesex
2478,42.412795,-71.204399,Belmont,Massachusetts,Middlesex
2479,42.446396,-71.459405,Waverley,Massachusetts,Middlesex
2481,42.310597,-71.274652,Wellesley Hills,Massachusetts,Norfolk
2482,42.294546,-71.299201,Wellesley,Massachusetts,Norfolk
2492,42.279797,-71.25006,Needham,Massachusetts,Norfolk
2493,42.375925,-71.227208,Weston,Massachusetts,Middlesex
2494,42.300147,-71.26315,Needham Heights,Massachusetts,Norfolk
2495,42.446396,-71.459405,Nonantum,Massachusetts,Middlesex
2532,41.745505,-70.590471,Buzzards Bay,Massachusetts,Barnstable
2534,41.669373,-70.62337,Cataumet,Massachusetts,Barnstable
2535,41.379034,-70.673082,Chilmark,Massachusetts,Dukes
2536,41.662506,-70.562843,East Falmouth,Massachusetts,Barnstable
2537,41.72832,-70.439975,East Sandwich,Massachusetts,Barnstable
2538,41.77544,-70.660562,East Wareham,Massachusetts,Plymouth
2539,41.401176,-70.552054,Edgartown,Massachusetts,Dukes
2540,41.614199,-70.493263,Falmouth,Massachusetts,Barnstable
2541,41.799312,-70.308662,Falmouth,Massachusetts,Barnstable
2542,41.65308,-70.553727,Buzzards Bay,Massachusetts,Barnstable
2543,41.593809,-70.646442,Woods Hole,Massachusetts,Barnstable
2552,41.379836,-70.643092,Menemsha,Massachusetts,Dukes
2553,41.67336,-70.608047,Monument Beach,Massachusetts,Barnstable
2554,41.287647,-70.08665,Nantucket,Massachusetts,Nantucket
2556,41.652967,-70.375475,North Falmouth,Massachusetts,Barnstable
2557,41.417376,-70.560032,Oak Bluffs,Massachusetts,Dukes
2558,41.74756,-70.658164,Onset,Massachusetts,Plymouth
2559,41.694771,-70.622769,Pocasset,Massachusetts,Barnstable
2561,41.770254,-70.533664,Sagamore,Massachusetts,Barnstable
2562,41.793263,-70.519584,Sagamore Beach,Massachusetts,Barnstable
2563,41.711291,-70.477482,Sandwich,Massachusetts,Barnstable
2564,41.273949,-70.015545,Siasconset,Massachusetts,Nantucket
2565,41.799312,-70.308662,Silver Beach,Massachusetts,Barnstable
2568,41.41595,-70.595235,Vineyard Haven,Massachusetts,Dukes
2571,41.760216,-70.694662,Wareham,Massachusetts,Plymouth
2573,41.379836,-70.643092,West Chop,Massachusetts,Dukes
2574,41.603946,-70.638189,West Falmouth,Massachusetts,Barnstable
2575,41.42125,-70.642806,West Tisbury,Massachusetts,Dukes
2576,41.769863,-70.749688,West Wareham,Massachusetts,Plymouth
2584,41.277794,-70.046019,Nantucket,Massachusetts,Nantucket
2601,41.829813,-70.138834,Hyannis,Massachusetts,Barnstable
2630,41.697313,-70.301394,Barnstable,Massachusetts,Barnstable
2631,41.852997,-70.044462,Brewster,Massachusetts,Barnstable
2632,41.796311,-70.175129,Centerville,Massachusetts,Barnstable
2633,41.859559,-70.0468,Chatham,Massachusetts,Barnstable
2634,41.799312,-70.308662,Centerville,Massachusetts,Barnstable
2635,41.624341,-70.43638,Cotuit,Massachusetts,Barnstable
2636,41.799312,-70.308662,Centerville,Massachusetts,Barnstable
2637,41.701438,-70.277212,Cummaquid,Massachusetts,Barnstable
2638,41.725716,-70.089142,Dennis,Massachusetts,Barnstable
2639,41.750745,-70.071836,Dennis Port,Massachusetts,Barnstable
2641,41.734713,-70.20467,East Dennis,Massachusetts,Barnstable
2642,41.850612,-70.020648,Eastham,Massachusetts,Barnstable
2643,41.784308,-69.962034,East Orleans,Massachusetts,Barnstable
2644,41.790031,-70.268632,Forestdale,Massachusetts,Barnstable
2645,41.835582,-70.043359,Harwich,Massachusetts,Barnstable
2646,41.845717,-70.053544,Harwich Port,Massachusetts,Barnstable
2647,41.635004,-70.306336,Hyannis Port,Massachusetts,Barnstable
2648,41.813034,-70.246666,Marstons Mills,Massachusetts,Barnstable
2649,41.788337,-70.253543,Mashpee,Massachusetts,Barnstable
2650,41.73497,-70.029065,North Chatham,Massachusetts,Barnstable
2651,41.824264,-69.98176,North Eastham,Massachusetts,Barnstable
2652,41.931061,-70.283584,North Truro,Massachusetts,Barnstable
2653,41.852933,-70.01539,Orleans,Massachusetts,Barnstable
2655,41.810178,-70.191269,Osterville,Massachusetts,Barnstable
2657,41.888775,-70.091057,Provincetown,Massachusetts,Barnstable
2659,41.848932,-70.030194,South Chatham,Massachusetts,Barnstable
2660,41.80038,-70.089244,South Dennis,Massachusetts,Barnstable
2661,41.686205,-70.032858,South Harwich,Massachusetts,Barnstable
2662,41.756694,-69.984123,South Orleans,Massachusetts,Barnstable
2663,41.800531,-70.076776,South Wellfleet,Massachusetts,Barnstable
2664,41.82412,-70.084259,South Yarmouth,Massachusetts,Barnstable
2666,41.987377,-70.047163,Truro,Massachusetts,Barnstable
2667,41.821307,-70.022806,Wellfleet,Massachusetts,Barnstable
2668,41.79055,-70.201719,West Barnstable,Massachusetts,Barnstable
2669,41.698721,-70.004937,West Chatham,Massachusetts,Barnstable
2670,41.710855,-70.072195,West Dennis,Massachusetts,Barnstable
2671,41.846719,-70.038282,West Harwich,Massachusetts,Barnstable
2672,41.635635,-70.323307,West Hyannisport,Massachusetts,Barnstable
2673,41.776105,-70.150512,West Yarmouth,Massachusetts,Barnstable
2675,41.716271,-70.135884,Yarmouth Port,Massachusetts,Barnstable
2702,41.782993,-71.017328,Assonet,Massachusetts,Bristol
2703,41.938976,-71.302297,Attleboro,Massachusetts,Bristol
2712,41.756214,-71.067062,Chartley,Massachusetts,Bristol
2713,41.42178,-70.931309,Cuttyhunk,Massachusetts,Dukes
2714,41.756214,-71.067062,Dartmouth,Massachusetts,Bristol
2715,41.817659,-71.151787,Dighton,Massachusetts,Bristol
2717,41.747358,-70.978947,East Freetown,Massachusetts,Bristol
2718,41.871407,-71.013148,East Taunton,Massachusetts,Bristol
2719,41.631672,-70.870045,Fairhaven,Massachusetts,Bristol
2720,41.819766,-71.165971,Fall River,Massachusetts,Bristol
2721,41.678895,-71.153648,Fall River,Massachusetts,Bristol
2722,41.756214,-71.067062,Fall River,Massachusetts,Bristol
2723,41.693802,-71.133088,Fall River,Massachusetts,Bristol
2724,41.684202,-71.175139,Fall River,Massachusetts,Bristol
2725,41.723851,-71.173989,Somerset,Massachusetts,Bristol
2726,41.757951,-71.153639,Somerset,Massachusetts,Bristol
2738,41.736735,-70.754015,Marion,Massachusetts,Plymouth
2739,41.664976,-70.810856,Mattapoisett,Massachusetts,Plymouth
2740,41.633416,-70.951045,New Bedford,Massachusetts,Bristol
2741,41.756214,-71.067062,New Bedford,Massachusetts,Bristol
2742,41.619557,-70.956346,New Bedford,Massachusetts,Bristol
2743,41.711894,-70.908286,Acushnet,Massachusetts,Bristol
2744,41.609354,-70.916181,New Bedford,Massachusetts,Bristol
2745,41.7087,-70.946883,New Bedford,Massachusetts,Bristol
2746,41.665704,-70.943021,New Bedford,Massachusetts,Bristol
2747,41.639261,-71.007578,North Dartmouth,Massachusetts,Bristol
2748,41.566464,-70.984253,South Dartmouth,Massachusetts,Bristol
2760,41.964376,-71.326448,North Attleboro,Massachusetts,Bristol
2761,41.756214,-71.067062,North Attleboro,Massachusetts,Bristol
2762,42.013553,-71.334399,Plainville,Massachusetts,Norfolk
2763,41.972584,-71.308229,Attleboro Falls,Massachusetts,Bristol
2764,41.847791,-71.155797,North Dighton,Massachusetts,Bristol
2766,41.959149,-71.180393,Norton,Massachusetts,Bristol
2767,41.9367,-71.048941,Raynham,Massachusetts,Bristol
2768,41.756214,-71.067062,Raynham Center,Massachusetts,Bristol
2769,41.852989,-71.243061,Rehoboth,Massachusetts,Bristol
2770,41.751812,-70.846041,Rochester,Massachusetts,Plymouth
2771,41.840103,-71.318995,Seekonk,Massachusetts,Bristol
2777,41.766629,-71.234443,Swansea,Massachusetts,Bristol
2779,41.828249,-71.064135,Berkley,Massachusetts,Bristol
2780,41.858851,-71.092827,Taunton,Massachusetts,Bristol
2783,41.756214,-71.067062,Taunton,Massachusetts,Bristol
2790,41.61547,-71.079636,Westport,Massachusetts,Bristol
2791,41.519104,-71.085137,Westport Point,Massachusetts,Bristol
2801,41.530131,-71.284066,Adamsville,Rhode Island,Newport
2802,41.954098,-71.462053,Albion,Rhode Island,Providence
2804,41.322365,-71.679251,Ashaway,Rhode Island,Washington
2806,41.742501,-71.320395,Barrington,Rhode Island,Bristol
2807,41.188888,-71.577696,Block Island,Rhode Island,Washington
2808,41.403784,-71.761665,Bradford,Rhode Island,Washington
2809,41.678378,-71.2704,Bristol,Rhode Island,Bristol
2812,41.469148,-71.675092,Carolina,Rhode Island,Washington
2813,41.395079,-71.66542,Charlestown,Rhode Island,Washington
2814,41.888971,-71.688769,Chepachet,Rhode Island,Providence
2815,41.770525,-71.65585,Clayville,Rhode Island,Providence
2816,41.694251,-71.636786,Coventry,Rhode Island,Kent
2817,41.631168,-71.667165,West Greenwich,Rhode Island,Kent
2818,41.64335,-71.478002,East Greenwich,Rhode Island,Kent
2822,41.5469,-71.650262,Exeter,Rhode Island,Washington
2823,41.7312,-71.546756,Fiskeville,Rhode Island,Providence
2824,42.000248,-71.563057,Forestdale,Rhode Island,Providence
2825,41.790569,-71.70644,Foster,Rhode Island,Providence
2826,41.982417,-71.600848,Glendale,Rhode Island,Providence
2827,41.691676,-71.727467,Greene,Rhode Island,Kent
2828,41.879298,-71.551682,Greenville,Rhode Island,Providence
2829,41.879298,-71.589357,Harmony,Rhode Island,Providence
2830,41.97239,-71.648502,Harrisville,Rhode Island,Providence
2831,41.753594,-71.577746,Hope,Rhode Island,Providence
2832,41.509632,-71.733875,Hope Valley,Rhode Island,Washington
2833,41.475117,-71.772617,Hopkinton,Rhode Island,Washington
2835,41.51412,-71.377247,Jamestown,Rhode Island,Newport
2836,41.447427,-71.620432,Kenyon,Rhode Island,Washington
2837,41.510257,-71.16634,Little Compton,Rhode Island,Newport
2838,41.967848,-71.475604,Manville,Rhode Island,Providence
2839,41.941715,-71.637581,Mapleville,Rhode Island,Providence
2840,41.487552,-71.327084,Newport,Rhode Island,Newport
2841,41.498977,-71.299004,Newport,Rhode Island,Newport
2842,41.519757,-71.273101,Middletown,Rhode Island,Newport
2852,41.586851,-71.464801,North Kingstown,Rhode Island,Washington
2854,41.375317,-71.64393,North Kingstown,Rhode Island,Washington
2857,41.838827,-71.655006,North Scituate,Rhode Island,Providence
2858,41.962303,-71.647542,Oakland,Rhode Island,Providence
2859,41.96415,-71.723316,Pascoag,Rhode Island,Providence
2860,41.875149,-71.392732,Pawtucket,Rhode Island,Providence
2861,41.878249,-71.369899,Pawtucket,Rhode Island,Providence
2862,41.86125,-71.369099,Pawtucket,Rhode Island,Providence
2863,41.889849,-71.394186,Central Falls,Rhode Island,Providence
2864,41.949498,-71.43269,Cumberland,Rhode Island,Providence
2865,41.925298,-71.493355,Lincoln,Rhode Island,Providence
2871,41.58523,-71.264197,Portsmouth,Rhode Island,Newport
2872,41.707119,-71.286834,Prudence Island,Rhode Island,Bristol
2873,41.519922,-71.774023,Rockville,Rhode Island,Washington
2874,41.478466,-71.471752,Saunderstown,Rhode Island,Washington
2875,41.456039,-71.635474,Shannock,Rhode Island,Washington
2876,41.998398,-71.576307,Slatersville,Rhode Island,Providence
2877,41.5289,-71.529854,Slocum,Rhode Island,Washington
2878,41.61018,-71.175183,Tiverton,Rhode Island,Newport
2879,41.443653,-71.534202,Wakefield,Rhode Island,Washington
2880,41.375317,-71.64393,Wakefield,Rhode Island,Washington
2881,41.482901,-71.524317,Kingston,Rhode Island,Washington
2882,41.377185,-71.497793,Narragansett,Rhode Island,Washington
2883,41.375317,-71.64393,Peace Dale,Rhode Island,Washington
2885,41.727451,-71.257492,Warren,Rhode Island,Bristol
2886,41.70247,-71.47902,Warwick,Rhode Island,Kent
2887,41.682455,-71.557732,Warwick,Rhode Island,Kent
2888,41.7473,-71.411088,Warwick,Rhode Island,Kent
2889,41.689182,-71.496048,Warwick,Rhode Island,Kent
2891,41.284494,-71.710708,Westerly,Rhode Island,Washington
2892,41.505764,-71.62114,West Kingston,Rhode Island,Washington
2893,41.696822,-71.507304,West Warwick,Rhode Island,Kent
2894,41.45005,-71.70742,Wood River Junction,Rhode Island,Washington
2895,41.984598,-71.51939,Woonsocket,Rhode Island,Providence
2896,41.934348,-71.540506,North Smithfield,Rhode Island,Providence
2898,41.504089,-71.662954,Wyoming,Rhode Island,Washington
2901,41.82275,-71.414451,Providence,Rhode Island,Providence
2902,41.81835,-71.424851,Providence,Rhode Island,Providence
2903,41.819459,-71.4115,Providence,Rhode Island,Providence
2904,41.85414,-71.437752,Providence,Rhode Island,Providence
2905,41.803799,-71.422547,Providence,Rhode Island,Providence
2906,41.8374,-71.394717,Providence,Rhode Island,Providence
2907,41.797065,-71.425501,Providence,Rhode Island,Providence
2908,41.837399,-71.4399,Providence,Rhode Island,Providence
2909,41.820599,-71.444302,Providence,Rhode Island,Providence
2910,41.7917,-71.435251,Cranston,Rhode Island,Providence
2911,41.838749,-71.449202,North Providence,Rhode Island,Providence
2912,41.826737,-71.397699,Providence,Rhode Island,Providence
2914,41.813429,-71.363348,East Providence,Rhode Island,Providence
2915,41.7743,-71.349697,Riverside,Rhode Island,Providence
2916,41.842727,-71.355798,Rumford,Rhode Island,Providence
2917,41.853899,-71.497804,Smithfield,Rhode Island,Providence
2918,41.841499,-71.440352,Providence,Rhode Island,Providence
2919,41.870932,-71.497604,Johnston,Rhode Island,Providence
2920,41.7693,-71.471353,Cranston,Rhode Island,Providence
2921,41.76675,-71.476703,Cranston,Rhode Island,Providence
2940,41.871766,-71.558518,Providence,Rhode Island,Providence
3031,42.87474,-71.629365,Amherst,New Hampshire,Hillsborough
3032,42.989151,-71.343576,Auburn,New Hampshire,Rockingham
3033,42.847268,-71.767437,Brookline,New Hampshire,Hillsborough
3034,43.059283,-71.305437,Candia,New Hampshire,Rockingham
3036,42.961606,-71.251021,Chester,New Hampshire,Rockingham
3037,42.987495,-71.252719,Deerfield,New Hampshire,Rockingham
3038,42.950825,-71.197169,Derry,New Hampshire,Rockingham
3040,43.005895,-71.013202,East Candia,New Hampshire,Rockingham
3041,43.005895,-71.013202,East Derry,New Hampshire,Rockingham
3042,43.047595,-71.084411,Epping,New Hampshire,Rockingham
3043,42.916233,-71.816505,Francestown,New Hampshire,Hillsborough
3044,42.992203,-71.127041,Fremont,New Hampshire,Rockingham
3045,42.94671,-71.687633,Goffstown,New Hampshire,Hillsborough
3046,,,Dunbarton,New Hampshire,Merrimack
3047,42.929346,-71.859087,Greenfield,New Hampshire,Hillsborough
3048,42.875116,-71.717548,Greenville,New Hampshire,Hillsborough
3049,42.859545,-71.581313,Hollis,New Hampshire,Hillsborough
3051,42.766426,-71.61887,Hudson,New Hampshire,Hillsborough
3052,42.886789,-71.485331,Litchfield,New Hampshire,Hillsborough
3053,42.8712,-71.387776,Londonderry,New Hampshire,Rockingham
3054,42.924928,-71.667508,Merrimack,New Hampshire,Hillsborough
3055,42.848787,-71.743882,Milford,New Hampshire,Hillsborough
3057,42.850464,-71.727044,Mont Vernon,New Hampshire,Hillsborough
3060,42.771537,-71.626336,Nashua,New Hampshire,Hillsborough
3061,42.952124,-71.653939,Nashua,New Hampshire,Hillsborough
3062,42.860117,-71.49976,Nashua,New Hampshire,Hillsborough
3063,42.774427,-71.511111,Nashua,New Hampshire,Hillsborough
3064,42.774237,-71.628611,Nashua,New Hampshire,Hillsborough
3070,42.903497,-71.775889,New Boston,New Hampshire,Hillsborough
3071,42.762946,-71.845164,New Ipswich,New Hampshire,Hillsborough
3073,43.005895,-71.013202,North Salem,New Hampshire,Rockingham
3076,42.740651,-71.318715,Pelham,New Hampshire,Hillsborough
3077,43.05932,-71.204521,Raymond,New Hampshire,Rockingham
3079,42.872045,-71.196195,Salem,New Hampshire,Rockingham
3082,42.902031,-71.773947,Lyndeborough,New Hampshire,Hillsborough
3084,42.822275,-71.860983,Temple,New Hampshire,Hillsborough
3086,42.894022,-71.730154,Wilton,New Hampshire,Hillsborough
3087,42.892211,-71.234009,Windham,New Hampshire,Rockingham
3101,42.988483,-71.462111,Manchester,New Hampshire,Hillsborough
3102,43.007883,-71.494561,Manchester,New Hampshire,Hillsborough
3103,42.942463,-71.463761,Manchester,New Hampshire,Hillsborough
3104,42.897524,-71.372208,Manchester,New Hampshire,Hillsborough
3105,42.952124,-71.653939,Manchester,New Hampshire,Hillsborough
3106,43.065097,-71.443616,Hooksett,New Hampshire,Merrimack
3107,42.952124,-71.653939,Manchester,New Hampshire,Hillsborough
3108,42.952124,-71.653939,Manchester,New Hampshire,Hillsborough
3109,42.970084,-71.405283,Manchester,New Hampshire,Hillsborough
3110,42.93743,-71.535515,Bedford,New Hampshire,Hillsborough
3111,42.952124,-71.653939,Manchester,New Hampshire,Hillsborough
3215,43.930221,-71.534068,Waterville Valley,New Hampshire,Grafton
3216,43.447006,-71.684093,Andover,New Hampshire,Merrimack
3217,43.715626,-71.639896,Ashland,New Hampshire,Grafton
3218,43.417369,-71.373189,Barnstead,New Hampshire,Belknap
3220,43.455551,-71.40709,Belmont,New Hampshire,Belknap
3221,43.280961,-71.792489,Bradford,New Hampshire,Merrimack
3222,43.70781,-71.72158,Bristol,New Hampshire,Grafton
3223,43.841799,-71.665223,Campton,New Hampshire,Grafton
3224,43.378281,-71.604226,Canterbury,New Hampshire,Merrimack
3225,43.386652,-71.292981,Center Barnstead,New Hampshire,Belknap
3226,43.69387,-71.466212,Center Harbor,New Hampshire,Belknap
3227,43.694809,-71.323953,Center Sandwich,New Hampshire,Carroll
3229,43.301308,-71.812943,Contoocook,New Hampshire,Merrimack
3230,43.514791,-71.882094,Danbury,New Hampshire,Merrimack
3231,43.466172,-71.736518,East Andover,New Hampshire,Merrimack
3232,43.967542,-71.840883,East Hebron,New Hampshire,Grafton
3233,43.422706,-71.944794,Elkins,New Hampshire,Merrimack
3234,43.340736,-71.669712,Epsom,New Hampshire,Merrimack
3235,43.374297,-71.680021,Franklin,New Hampshire,Merrimack
3237,43.414064,-71.384213,Gilmanton,New Hampshire,Belknap
3238,43.967542,-71.840883,Glencliff,New Hampshire,Grafton
3240,43.967542,-71.840883,Grafton,New Hampshire,Grafton
3241,43.718268,-71.889483,Hebron,New Hampshire,Grafton
3242,43.180148,-71.81959,Henniker,New Hampshire,Merrimack
3243,43.443473,-71.762631,Hill,New Hampshire,Merrimack
3244,43.12295,-71.914287,Hillsboro,New Hampshire,Hillsborough
3245,43.737831,-71.604406,Holderness,New Hampshire,Grafton
3246,43.535461,-71.426997,Laconia,New Hampshire,Belknap
3247,43.588972,-71.445452,Laconia,New Hampshire,Belknap
3249,,,Gilford,New Hampshire,Belknap
3251,44.049183,-71.653505,Lincoln,New Hampshire,Grafton
3252,43.468562,-71.537145,Lochmere,New Hampshire,Belknap
3253,43.592239,-71.517479,Meredith,New Hampshire,Belknap
3254,43.728235,-71.335248,Moultonborough,New Hampshire,Carroll
3255,43.321723,-72.01184,Newbury,New Hampshire,Merrimack
3256,43.603288,-71.634674,New Hampton,New Hampshire,Belknap
3257,43.301663,-71.733643,New London,New Hampshire,Merrimack
3258,,,Chichester,New Hampshire,Merrimack
3259,43.85971,-71.37719,North Sandwich,New Hampshire,Carroll
3260,43.365345,-71.934059,North Sutton,New Hampshire,Merrimack
3261,43.208676,-71.202568,Northwood,New Hampshire,Rockingham
3262,44.035391,-71.686326,North Woodstock,New Hampshire,Grafton
3263,43.297834,-71.343707,Pittsfield,New Hampshire,Merrimack
3264,43.710919,-71.694017,Plymouth,New Hampshire,Grafton
3266,43.752475,-71.788434,Rumney,New Hampshire,Grafton
3268,43.361756,-71.558817,Salisbury,New Hampshire,Merrimack
3269,43.50178,-71.514248,Sanbornton,New Hampshire,Belknap
3272,43.310279,-71.662928,South Newbury,New Hampshire,Merrimack
3273,43.304205,-71.928867,South Sutton,New Hampshire,Merrimack
3274,43.967542,-71.840883,Stinson Lake,New Hampshire,Grafton
3275,43.286382,-71.599047,Suncook,New Hampshire,Merrimack
3276,43.536056,-71.49166,Tilton,New Hampshire,Belknap
3278,43.310858,-71.842299,Warner,New Hampshire,Merrimack
3279,43.967542,-71.840883,Warren,New Hampshire,Grafton
3280,43.17229,-72.100689,Washington,New Hampshire,Sullivan
3281,43.084176,-71.762578,Weare,New Hampshire,Hillsborough
3282,43.967542,-71.840883,Wentworth,New Hampshire,Grafton
3284,43.493812,-72.047018,Springfield,New Hampshire,Sullivan
3287,43.44853,-71.915826,Wilmot,New Hampshire,Merrimack
3289,43.496372,-71.519728,Winnisquam,New Hampshire,Belknap
3290,43.124825,-71.125879,Nottingham,New Hampshire,Rockingham
3291,43.182251,-71.139551,West Nottingham,New Hampshire,Rockingham
3293,43.967542,-71.840883,Woodstock,New Hampshire,Grafton
3298,43.524872,-71.445841,Tilton,New Hampshire,Belknap
3299,43.524872,-71.445841,Tilton,New Hampshire,Belknap
3301,43.230314,-71.536101,Concord,New Hampshire,Merrimack
3302,43.310279,-71.662928,Concord,New Hampshire,Merrimack
3303,43.281654,-71.659523,Concord,New Hampshire,Merrimack
3304,43.128256,-71.544599,Bow,New Hampshire,Merrimack
3305,43.2134,-71.517151,Concord,New Hampshire,Merrimack
3307,43.319339,-71.467006,Loudon,New Hampshire,Merrimack
3431,42.903656,-72.248052,Keene,New Hampshire,Cheshire
3435,42.947098,-72.243029,Keene,New Hampshire,Cheshire
3440,43.044535,-71.971353,Antrim,New Hampshire,Hillsborough
3441,42.777271,-72.444106,Ashuelot,New Hampshire,Cheshire
3442,43.002936,-71.908029,Bennington,New Hampshire,Hillsborough
3443,42.883948,-72.454813,Chesterfield,New Hampshire,Cheshire
3444,42.889124,-72.018993,Dublin,New Hampshire,Cheshire
3445,42.998225,-72.201903,Sullivan,New Hampshire,Cheshire
3446,42.841079,-72.330145,Swanzey,New Hampshire,Cheshire
3447,42.881769,-72.248026,Fitzwilliam,New Hampshire,Cheshire
3448,42.936786,-72.210953,Gilsum,New Hampshire,Cheshire
3449,42.93924,-71.983797,Hancock,New Hampshire,Hillsborough
3450,42.884548,-72.102634,Harrisville,New Hampshire,Cheshire
3451,42.894151,-72.280099,Hinsdale,New Hampshire,Cheshire
3452,42.821969,-72.082559,Jaffrey,New Hampshire,Cheshire
3455,42.88825,-72.279638,Marlborough,New Hampshire,Cheshire
3456,43.119294,-72.202564,Marlow,New Hampshire,Cheshire
3457,42.896623,-72.091677,Nelson,New Hampshire,Cheshire
3458,42.956433,-71.9372,Peterborough,New Hampshire,Hillsborough
3461,42.76509,-72.00912,Rindge,New Hampshire,Cheshire
3462,42.870716,-72.239432,Spofford,New Hampshire,Cheshire
3464,42.95478,-72.102454,Stoddard,New Hampshire,Cheshire
3465,42.843617,-72.279814,Troy,New Hampshire,Cheshire
3466,42.858419,-72.432202,West Chesterfield,New Hampshire,Cheshire
3467,42.973867,-72.44256,Westmoreland,New Hampshire,Cheshire
3468,42.890804,-71.933396,West Peterborough,New Hampshire,Hillsborough
3469,42.87341,-72.31509,West Swanzey,New Hampshire,Cheshire
3470,42.895797,-72.274928,Winchester,New Hampshire,Cheshire
3561,44.335289,-71.877638,Littleton,New Hampshire,Grafton
3570,44.512344,-71.194226,Berlin,New Hampshire,Coos
3574,44.30632,-71.728049,Bethlehem,New Hampshire,Grafton
3575,44.695648,-71.387387,Bretton Woods,New Hampshire,Coos
3576,44.902731,-71.500809,Colebrook,New Hampshire,Coos
3579,44.695648,-71.387387,Errol,New Hampshire,Coos
3580,44.212814,-71.737162,Franconia,New Hampshire,Grafton
3581,44.404848,-71.154758,Gorham,New Hampshire,Coos
3582,44.75096,-71.422453,Groveton,New Hampshire,Coos
3583,44.695648,-71.387387,Jefferson,New Hampshire,Coos
3584,44.476575,-71.561225,Lancaster,New Hampshire,Coos
3585,44.245004,-71.888882,Lisbon,New Hampshire,Grafton
3587,44.695648,-71.387387,Meadows,New Hampshire,Coos
3588,44.56532,-71.218672,Milan,New Hampshire,Coos
3589,44.695648,-71.387387,Mount Washington,New Hampshire,Coos
3590,44.695648,-71.387387,North Stratford,New Hampshire,Coos
3592,44.695648,-71.387387,Pittsburg,New Hampshire,Coos
3595,44.26895,-71.547061,Twin Mountain,New Hampshire,Coos
3597,44.695648,-71.387387,West Stewartstown,New Hampshire,Coos
3598,44.363681,-71.610189,Whitefield,New Hampshire,Coos
3601,43.195982,-72.300075,Acworth,New Hampshire,Sullivan
3602,43.134412,-72.310623,Alstead,New Hampshire,Cheshire
3603,43.268117,-72.370222,Charlestown,New Hampshire,Sullivan
3604,42.947098,-72.243029,Drewsville,New Hampshire,Cheshire
3605,43.213615,-72.196758,Lempster,New Hampshire,Sullivan
3607,43.364504,-72.193966,South Acworth,New Hampshire,Sullivan
3608,43.072239,-72.390121,Walpole,New Hampshire,Cheshire
3609,43.138018,-72.407236,North Walpole,New Hampshire,Cheshire
3740,44.114163,-71.948852,Bath,New Hampshire,Grafton
3741,43.63123,-72.057312,Canaan,New Hampshire,Grafton
3743,43.415993,-72.209819,Claremont,New Hampshire,Sullivan
3745,43.462156,-72.337149,Cornish,New Hampshire,Sullivan
3746,43.364504,-72.193966,Cornish Flat,New Hampshire,Sullivan
3748,43.630906,-72.116603,Enfield,New Hampshire,Grafton
3749,43.579573,-72.08541,Enfield Center,New Hampshire,Grafton
3750,43.697999,-72.215182,Etna,New Hampshire,Grafton
3751,43.44872,-72.063675,Georges Mills,New Hampshire,Sullivan
3752,43.417705,-72.196718,Goshen,New Hampshire,Sullivan
3753,43.463101,-72.218445,Grantham,New Hampshire,Sullivan
3754,43.365618,-72.125562,Guild,New Hampshire,Sullivan
3755,43.861077,-72.120314,Hanover,New Hampshire,Grafton
3756,43.967542,-71.840883,Lebanon,New Hampshire,Grafton
3765,44.037549,-72.046692,Haverhill,New Hampshire,Grafton
3766,43.637148,-72.23546,Lebanon,New Hampshire,Grafton
3768,43.801656,-72.130495,Lyme,New Hampshire,Grafton
3769,43.786267,-72.120468,Lyme Center,New Hampshire,Grafton
3770,43.421675,-72.255638,Meriden,New Hampshire,Sullivan
3771,44.268612,-72.015317,Monroe,New Hampshire,Grafton
3773,43.390485,-72.199659,Newport,New Hampshire,Sullivan
3774,44.077803,-72.014608,North Haverhill,New Hampshire,Grafton
3777,43.927348,-72.10987,Orford,New Hampshire,Grafton
3779,43.948343,-72.062132,Piermont,New Hampshire,Grafton
3780,43.967542,-71.840883,Pike,New Hampshire,Grafton
3781,43.432999,-72.282596,Plainfield,New Hampshire,Sullivan
3782,43.426838,-72.15471,Sunapee,New Hampshire,Sullivan
3784,43.644367,-72.2348,West Lebanon,New Hampshire,Grafton
3785,43.948644,-72.080708,Woodsville,New Hampshire,Grafton
3801,43.009222,-70.950742,Portsmouth,New Hampshire,Rockingham
3802,43.005895,-71.013202,Portsmouth,New Hampshire,Rockingham
3803,42.92703,-71.444752,Portsmouth,New Hampshire,Rockingham
3804,43.005895,-71.013202,Portsmouth,New Hampshire,Rockingham
3805,43.285282,-70.930684,Rollinsford,New Hampshire,Strafford
3809,43.462586,-71.222455,Alton,New Hampshire,Belknap
3810,43.502514,-71.277387,Alton Bay,New Hampshire,Belknap
3811,42.878366,-71.159035,Atkinson,New Hampshire,Rockingham
3812,43.883871,-71.257726,Bartlett,New Hampshire,Carroll
3813,43.797391,-71.145357,Center Conway,New Hampshire,Carroll
3814,43.762429,-71.122689,Center Ossipee,New Hampshire,Carroll
3815,43.253739,-71.109825,Center Strafford,New Hampshire,Strafford
3816,43.660752,-71.274458,Center Tuftonboro,New Hampshire,Carroll
3817,43.74858,-71.089796,Chocorua,New Hampshire,Carroll
3818,43.78892,-71.10261,Conway,New Hampshire,Carroll
3819,42.926725,-71.082299,Danville,New Hampshire,Rockingham
3820,43.297309,-70.992042,Dover,New Hampshire,Strafford
3821,43.326734,-71.028427,Dover,New Hampshire,Strafford
3822,43.326734,-71.028427,Dover,New Hampshire,Strafford
3824,43.165772,-70.962843,Durham,New Hampshire,Strafford
3825,43.29779,-71.097423,Barrington,New Hampshire,Strafford
3826,42.893629,-71.14269,East Hampstead,New Hampshire,Rockingham
3827,42.912071,-71.054245,East Kingston,New Hampshire,Rockingham
3830,43.635065,-71.009368,East Wakefield,New Hampshire,Carroll
3832,43.883871,-71.257726,Eaton Center,New Hampshire,Carroll
3833,42.951274,-70.922262,Exeter,New Hampshire,Rockingham
3835,43.306172,-71.003435,Farmington,New Hampshire,Strafford
3836,43.823704,-71.093154,Freedom,New Hampshire,Carroll
3837,43.446567,-71.299456,Gilmanton Iron Works,New Hampshire,Belknap
3838,44.050111,-71.265371,Glen,New Hampshire,Carroll
3839,43.309966,-70.998256,Rochester,New Hampshire,Strafford
3840,43.038634,-70.809157,Greenland,New Hampshire,Rockingham
3841,42.877438,-71.139098,Hampstead,New Hampshire,Rockingham
3842,42.917389,-70.95095,Hampton,New Hampshire,Rockingham
3843,43.005895,-71.013202,Hampton,New Hampshire,Rockingham
3844,42.891888,-70.982601,Hampton Falls,New Hampshire,Rockingham
3845,44.082716,-71.134348,Intervale,New Hampshire,Carroll
3846,43.883871,-71.257726,Jackson,New Hampshire,Carroll
3847,43.883871,-71.257726,Kearsarge,New Hampshire,Carroll
3848,42.909731,-71.102933,Kingston,New Hampshire,Rockingham
3849,43.902311,-71.124612,Madison,New Hampshire,Carroll
3850,43.707657,-71.301681,Melvin Village,New Hampshire,Carroll
3851,43.422942,-71.011369,Milton,New Hampshire,Strafford
3852,43.326734,-71.028427,Milton Mills,New Hampshire,Strafford
3853,43.646319,-71.282068,Mirror Lake,New Hampshire,Carroll
3854,43.064938,-70.721596,New Castle,New Hampshire,Rockingham
3855,43.459503,-71.119055,New Durham,New Hampshire,Strafford
3856,43.037363,-70.978211,Newfields,New Hampshire,Rockingham
3857,42.979021,-70.891642,Newmarket,New Hampshire,Rockingham
3858,42.937092,-71.006898,Newton,New Hampshire,Rockingham
3859,42.861915,-71.04002,Newton Junction,New Hampshire,Rockingham
3860,43.784643,-71.10263,North Conway,New Hampshire,Carroll
3862,43.00027,-70.913947,North Hampton,New Hampshire,Rockingham
3864,43.667352,-71.153338,Ossipee,New Hampshire,Carroll
3865,42.937838,-70.926206,Plaistow,New Hampshire,Rockingham
3866,43.41176,-71.027303,Rochester,New Hampshire,Strafford
3867,43.326831,-70.993148,Rochester,New Hampshire,Strafford
3868,43.349689,-70.945161,Rochester,New Hampshire,Strafford
3869,43.16136,-70.942666,Rollinsford,New Hampshire,Strafford
3870,43.010939,-70.764813,Rye,New Hampshire,Rockingham
3871,42.980639,-70.771896,Rye Beach,New Hampshire,Rockingham
3872,43.570694,-71.079427,Sanbornville,New Hampshire,Carroll
3873,42.922666,-71.174262,Sandown,New Hampshire,Rockingham
3874,42.964415,-70.819897,Seabrook,New Hampshire,Rockingham
3875,43.855269,-71.176182,Silver Lake,New Hampshire,Carroll
3878,43.229489,-70.958264,Somersworth,New Hampshire,Strafford
3882,43.704702,-70.990155,Effingham,New Hampshire,Carroll
3883,43.883871,-71.257726,South Tamworth,New Hampshire,Carroll
3884,43.256871,-71.171886,Strafford,New Hampshire,Strafford
3885,43.01295,-70.882134,Stratham,New Hampshire,Rockingham
3886,43.647527,-71.277779,Tamworth,New Hampshire,Carroll
3887,43.459999,-71.040842,Union,New Hampshire,Carroll
3890,43.811782,-71.194586,West Ossipee,New Hampshire,Carroll
3894,43.667102,-71.183597,Wolfeboro,New Hampshire,Carroll
3896,43.589157,-71.218894,Wolfeboro Falls,New Hampshire,Carroll
3897,43.883871,-71.257726,Wonalancet,New Hampshire,Carroll
3901,43.279539,-70.740013,Berwick,Maine,York
3902,43.245785,-70.664719,Cape Neddick,Maine,York
3903,43.182729,-70.745759,Eliot,Maine,York
3904,43.191554,-70.684607,Kittery,Maine,York
3905,43.094746,-70.68928,Kittery Point,Maine,York
3906,43.340626,-70.753996,North Berwick,Maine,York
3907,43.350806,-70.731498,Ogunquit,Maine,York
3908,43.227549,-70.71171,South Berwick,Maine,York
3909,43.237891,-70.69099,York,Maine,York
3910,43.211674,-70.73201,York Beach,Maine,York
3911,43.155465,-70.635702,York Harbor,Maine,York
4001,43.520752,-70.804588,Acton,Maine,York
4002,43.467224,-70.738992,Alfred,Maine,York
4003,43.735867,-69.995456,Bailey Island,Maine,Cumberland
4004,43.365658,-70.604379,Bar Mills,Maine,York
4005,43.532376,-70.651859,Biddeford,Maine,York
4006,43.436049,-70.3598,Biddeford Pool,Maine,York
4007,43.45813,-70.505301,Biddeford,Maine,York
4008,44.023162,-69.875816,Bowdoinham,Maine,Sagadahoc
4009,43.939828,-70.747431,Bridgton,Maine,Cumberland
4010,44.163033,-70.739823,Brownfield,Maine,Oxford
4011,43.935634,-70.340652,Brunswick,Maine,Cumberland
4013,44.408078,-70.470703,Bustins Island,Maine,Cumberland
4014,43.365658,-70.604379,Cape Porpoise,Maine,York
4015,43.962115,-70.524465,Casco,Maine,Cumberland
4016,44.180965,-70.891727,Center Lovell,Maine,Oxford
4017,43.727806,-70.120437,Chebeague Island,Maine,Cumberland
4019,44.408078,-70.470703,Cliff Island,Maine,Cumberland
4020,43.77397,-70.791727,Cornish,Maine,York
4021,43.812676,-70.450494,Cumberland Center,Maine,Cumberland
4022,44.566156,-70.661557,Denmark,Maine,Oxford
4024,43.844826,-70.688656,East Baldwin,Maine,Cumberland
4027,43.459708,-70.91519,Lebanon,Maine,York
4028,43.732391,-70.845114,East Parsonfield,Maine,York
4029,43.867223,-70.547159,Sebago,Maine,Cumberland
4030,43.596921,-70.689681,East Waterboro,Maine,York
4032,43.864477,-70.097543,Freeport,Maine,Cumberland
4033,44.408078,-70.470703,Freeport,Maine,Cumberland
4034,44.408078,-70.470703,Freeport,Maine,Cumberland
4037,44.044292,-70.964418,Fryeburg,Maine,Oxford
4038,43.803689,-70.355188,Gorham,Maine,Cumberland
4039,43.878567,-70.328889,Gray,Maine,Cumberland
4040,43.992681,-70.357119,Harrison,Maine,Cumberland
4041,43.879628,-70.826188,Hiram,Maine,Oxford
4042,43.584232,-70.624391,Hollis Center,Maine,York
4043,43.494679,-70.54921,Kennebunk,Maine,York
4046,43.534125,-70.607475,Kennebunkport,Maine,York
4047,43.744987,-70.909196,Parsonsfield,Maine,York
4048,43.661222,-70.83448,Limerick,Maine,York
4049,43.703854,-70.748668,Limington,Maine,York
4050,44.408078,-70.470703,Long Island,Maine,Cumberland
4051,44.139839,-70.886741,Lovell,Maine,Oxford
4053,44.408078,-70.470703,Merepoint,Maine,Cumberland
4054,43.276341,-70.597752,Moody,Maine,York
4055,43.957208,-70.639546,Naples,Maine,Cumberland
4056,43.658378,-70.868871,Newfield,Maine,York
4057,44.408078,-70.470703,North Bridgton,Maine,Cumberland
4061,43.54209,-70.710773,North Waterboro,Maine,York
4062,43.911381,-70.396652,Windham,Maine,Cumberland
4063,43.504889,-70.385703,Ocean Park,Maine,York
4064,43.411837,-70.469526,Old Orchard Beach,Maine,York
4066,43.779982,-69.975477,Orrs Island,Maine,Cumberland
4068,43.848322,-70.935379,Porter,Maine,Oxford
4069,43.894983,-70.189159,Pownal,Maine,Cumberland
4070,43.576983,-70.273642,Scarborough,Maine,Cumberland
4071,43.906227,-70.465928,Raymond,Maine,Cumberland
4072,43.541241,-70.666387,Saco,Maine,York
4073,43.576196,-70.630569,Sanford,Maine,York
4074,43.724562,-70.375162,Scarborough,Maine,Cumberland
4075,43.796053,-70.552183,Sebago Lake,Maine,Cumberland
4076,43.510275,-70.77159,Shapleigh,Maine,York
4077,43.910029,-70.524524,South Casco,Maine,Cumberland
4078,43.820774,-70.120781,South Freeport,Maine,Cumberland
4079,43.78105,-69.995537,Harpswell,Maine,Cumberland
4081,44.566156,-70.661557,South Waterford,Maine,Oxford
4082,44.408078,-70.470703,South Windham,Maine,Cumberland
4083,43.465941,-70.748295,Springvale,Maine,York
4084,43.804454,-70.554905,Standish,Maine,Cumberland
4085,43.771934,-70.639561,Steep Falls,Maine,Cumberland
4086,43.981404,-69.937793,Topsham,Maine,Sagadahoc
4087,43.573684,-70.749181,Waterboro,Maine,York
4088,44.566156,-70.661557,Waterford,Maine,Oxford
4090,43.429659,-70.671274,Wells,Maine,York
4091,44.408078,-70.470703,West Baldwin,Maine,Cumberland
4092,43.855116,-70.568534,Westbrook,Maine,Cumberland
4093,43.653805,-70.622959,Buxton,Maine,York
4094,43.406101,-70.573255,West Kennebunk,Maine,York
4095,43.601018,-70.902676,West Newfield,Maine,York
4096,43.798227,-70.171979,Yarmouth,Maine,Cumberland
4097,43.837951,-70.200114,North Yarmouth,Maine,Cumberland
4098,44.408078,-70.470703,Westbrook,Maine,Cumberland
4101,43.658784,-70.262393,Portland,Maine,Cumberland
4102,43.74275,-70.44338,Portland,Maine,Cumberland
4103,43.68826,-70.289844,Portland,Maine,Cumberland
4104,43.84649,-70.464839,Portland,Maine,Cumberland
4105,43.73928,-70.270696,Falmouth,Maine,Cumberland
4106,43.627364,-70.289248,South Portland,Maine,Cumberland
4107,43.595512,-70.239559,Cape Elizabeth,Maine,Cumberland
4108,43.662809,-70.188442,Peaks Island,Maine,Cumberland
4109,43.678339,-70.198742,Portland,Maine,Cumberland
4110,43.759021,-70.199307,Cumberland Foreside,Maine,Cumberland
4112,44.408078,-70.470703,Portland,Maine,Cumberland
4116,44.408078,-70.470703,South Portland,Maine,Cumberland
4122,44.408078,-70.470703,Portland,Maine,Cumberland
4123,44.408078,-70.470703,Portland,Maine,Cumberland
4124,44.408078,-70.470703,Portland,Maine,Cumberland
4210,44.087422,-70.243848,Auburn,Maine,Androscoggin
4211,44.197009,-70.239485,Auburn,Maine,Androscoggin
4212,44.197009,-70.239485,Auburn,Maine,Androscoggin
4216,44.56816,-70.704051,Andover,Maine,Oxford
4217,44.428414,-70.770035,Bethel,Maine,Oxford
4219,44.265009,-70.587095,Bryant Pond,Maine,Oxford
4220,44.326165,-70.381112,Buckfield,Maine,Oxford
4221,44.38575,-70.311314,Canton,Maine,Oxford
4222,43.968378,-70.184618,Durham,Maine,Androscoggin
4223,44.023873,-70.285748,Danville,Maine,Androscoggin
4224,44.553968,-70.422541,Dixfield,Maine,Oxford
4225,44.602705,-70.22651,Dryden,Maine,Franklin
4226,44.555618,-70.691857,East Andover,Maine,Oxford
4227,44.579135,-70.326337,East Dixfield,Maine,Franklin
4228,44.197009,-70.239485,East Livermore,Maine,Androscoggin
4230,44.062672,-70.327049,East Poland,Maine,Androscoggin
4231,44.313283,-70.861797,Stoneham,Maine,Oxford
4234,44.617509,-70.182012,East Wilton,Maine,Franklin
4236,44.189655,-70.136683,Greene,Maine,Androscoggin
4237,44.494347,-70.735691,Hanover,Maine,Oxford
4238,44.22564,-70.372831,Hebron,Maine,Oxford
4239,44.541508,-70.208556,Jay,Maine,Franklin
4240,44.086323,-70.169297,Lewiston,Maine,Androscoggin
4241,44.197009,-70.239485,Lewiston,Maine,Androscoggin
4243,44.197009,-70.239485,Lewiston,Maine,Androscoggin
4250,44.033026,-70.101247,Lisbon,Maine,Androscoggin
4252,44.032476,-70.068046,Lisbon Falls,Maine,Androscoggin
4253,44.297416,-70.189139,Livermore,Maine,Androscoggin
4254,44.242189,-70.188508,Livermore Falls,Maine,Androscoggin
4255,44.401595,-70.708774,Greenwood,Maine,Oxford
4256,44.079644,-70.272624,Mechanic Falls,Maine,Androscoggin
4257,44.570265,-70.516131,Mexico,Maine,Oxford
4258,44.146121,-70.339859,Minot,Maine,Androscoggin
4259,44.349166,-69.870181,Monmouth,Maine,Kennebec
4260,43.967474,-70.299687,New Gloucester,Maine,Cumberland
4261,44.689526,-71.011246,Newry,Maine,Oxford
4262,45.063384,-70.381639,North Jay,Maine,Franklin
4263,44.292089,-70.135366,Leeds,Maine,Androscoggin
4265,44.303359,-70.037848,North Monmouth,Maine,Kennebec
4266,44.357987,-70.255783,North Turner,Maine,Androscoggin
4267,44.566156,-70.661557,North Waterford,Maine,Oxford
4268,44.280503,-70.691576,Norway,Maine,Oxford
4270,44.284385,-70.507791,Oxford,Maine,Oxford
4271,44.264111,-70.498513,Paris,Maine,Oxford
4274,44.047435,-70.389923,Poland,Maine,Androscoggin
4275,44.566156,-70.661557,Roxbury,Maine,Oxford
4276,44.523556,-70.638174,Rumford,Maine,Oxford
4278,44.377031,-70.568041,Rumford Center,Maine,Oxford
4280,44.126723,-70.126922,Sabattus,Maine,Androscoggin
4281,44.353052,-70.607841,South Paris,Maine,Oxford
4282,44.265473,-70.254155,Turner,Maine,Androscoggin
4283,44.197009,-70.239485,Turner Center,Maine,Androscoggin
4284,44.359835,-70.074555,Wayne,Maine,Kennebec
4285,45.063384,-70.381639,Weld,Maine,Franklin
4286,44.40205,-70.860094,West Bethel,Maine,Oxford
4287,44.057514,-69.965553,Bowdoin,Maine,Sagadahoc
4288,44.197009,-70.239485,West Minot,Maine,Androscoggin
4289,44.340438,-70.543265,West Paris,Maine,Oxford
4290,44.477183,-70.436722,Peru,Maine,Oxford
4291,44.040857,-70.453006,West Poland,Maine,Androscoggin
4292,44.3189,-70.477506,Sumner,Maine,Oxford
4294,44.618873,-70.245935,Wilton,Maine,Franklin
4330,44.351642,-69.803773,Augusta,Maine,Kennebec
4332,44.414056,-69.751913,Augusta,Maine,Kennebec
4333,44.414056,-69.751913,Augusta,Maine,Kennebec
4336,44.315693,-69.818009,Augusta,Maine,Kennebec
4338,44.414056,-69.751913,Augusta,Maine,Kennebec
4341,44.258771,-69.551024,Coopers Mills,Maine,Lincoln
4342,44.077448,-69.738418,Dresden,Maine,Lincoln
4343,44.414056,-69.751913,East Winthrop,Maine,Kennebec
4344,44.256614,-69.797105,Farmingdale,Maine,Kennebec
4345,44.296652,-69.796909,Gardiner,Maine,Kennebec
4346,44.269959,-69.724135,Randolph,Maine,Kennebec
4347,44.24913,-69.795037,Hallowell,Maine,Kennebec
4348,44.220432,-69.513293,Jefferson,Maine,Lincoln
4349,44.414056,-69.751913,Kents Hill,Maine,Kennebec
4350,44.158104,-69.95404,Litchfield,Maine,Kennebec
4351,44.358014,-69.867001,Manchester,Maine,Kennebec
4352,44.461522,-69.986762,Mount Vernon,Maine,Kennebec
4353,44.188406,-69.575119,Whitefield,Maine,Lincoln
4354,44.39559,-69.4168,Palermo,Maine,Waldo
4355,44.38484,-69.953716,Readfield,Maine,Kennebec
4357,44.108059,-69.827489,Richmond,Maine,Sagadahoc
4358,44.375578,-69.586327,South China,Maine,Kennebec
4359,44.183266,-69.777196,South Gardiner,Maine,Kennebec
4360,44.414056,-69.751913,Vienna,Maine,Kennebec
4363,44.414056,-69.751913,Windsor,Maine,Kennebec
4364,44.322865,-69.957627,Winthrop,Maine,Kennebec
4401,45.061744,-68.878893,Bangor,Maine,Penobscot
4402,45.519867,-68.647416,Bangor,Maine,Penobscot
4406,45.184103,-69.233382,Abbot,Maine,Piscataquis
4408,44.641873,-68.391481,Aurora,Maine,Hancock
4410,45.058864,-68.95432,Bradford,Maine,Penobscot
4411,44.914946,-68.625688,Bradley,Maine,Penobscot
4412,44.83561,-68.783742,Brewer,Maine,Penobscot
4413,45.002969,-67.495548,Brookton,Maine,Washington
4414,45.310095,-69.029462,Brownville,Maine,Piscataquis
4415,45.351184,-69.058062,Brownville Junction,Maine,Piscataquis
4416,44.600448,-68.773241,Bucksport,Maine,Hancock
4417,44.81782,-68.817481,Burlington,Maine,Penobscot
4418,45.049429,-68.581212,Greenbush,Maine,Penobscot
4419,44.808062,-68.940624,Carmel,Maine,Penobscot
4420,44.412968,-68.798047,Castine,Maine,Hancock
4421,44.415639,-68.792883,Castine,Maine,Hancock
4422,45.066999,-69.040695,Charleston,Maine,Penobscot
4423,45.039478,-68.529182,Costigan,Maine,Penobscot
4424,45.658831,-67.866054,Danforth,Maine,Washington
4426,45.171605,-69.207725,Dover Foxcroft,Maine,Piscataquis
4427,44.989376,-68.865187,Corinth,Maine,Penobscot
4428,44.79169,-68.577728,Eddington,Maine,Penobscot
4429,44.894294,-68.818345,Holden,Maine,Penobscot
4430,45.233408,-68.689174,East Millinocket,Maine,Penobscot
4431,44.561174,-68.664735,East Orland,Maine,Hancock
4434,45.519867,-68.647416,Etna,Maine,Penobscot
4435,44.966032,-69.13308,Exeter,Maine,Penobscot
4438,44.632657,-68.849975,Frankfort,Maine,Waldo
4441,45.792364,-69.30463,Greenville,Maine,Piscataquis
4442,45.792364,-69.30463,Greenville Junction,Maine,Piscataquis
4443,45.315976,-69.457444,Guilford,Maine,Piscataquis
4444,44.835984,-68.829046,Hampden,Maine,Penobscot
4448,45.245635,-68.666632,Howland,Maine,Penobscot
4449,45.006054,-68.884621,Hudson,Maine,Penobscot
4450,44.918877,-68.965803,Kenduskeag,Maine,Penobscot
4451,45.519867,-68.647416,Kingman,Maine,Penobscot
4453,44.787229,-69.21821,Lagrange,Maine,Penobscot
4454,45.002969,-67.495548,Lambert Lake,Maine,Washington
4455,45.519867,-68.647416,Lee,Maine,Penobscot
4456,44.871231,-69.011636,Levant,Maine,Penobscot
4457,45.366794,-68.49299,Lincoln,Maine,Penobscot
4459,45.519867,-68.647416,Mattawamkeag,Maine,Penobscot
4460,45.618608,-68.543602,Medway,Maine,Penobscot
4461,45.0542,-68.595946,Milford,Maine,Penobscot
4462,45.226479,-68.752091,Millinocket,Maine,Penobscot
4463,45.244612,-68.975988,Milo,Maine,Piscataquis
4464,45.792364,-69.30463,Monson,Maine,Piscataquis
4467,45.519867,-68.647416,Olamon,Maine,Penobscot
4468,45.040655,-68.722962,Old Town,Maine,Penobscot
4469,45.002798,-68.63343,Orono,Maine,Penobscot
4471,46.516166,-68.886826,Orient,Maine,Aroostook
4472,44.409375,-68.625903,Orland,Maine,Hancock
4473,45.068848,-68.744361,Orono,Maine,Penobscot
4474,44.842939,-68.782487,Orrington,Maine,Penobscot
4475,45.040668,-68.618775,Passadumkeag,Maine,Penobscot
4476,44.433911,-68.721716,Penobscot,Maine,Hancock
4478,45.28657,-70.054629,Rockwood,Maine,Somerset
4479,45.792364,-69.30463,Sangerville,Maine,Piscataquis
4481,45.792364,-69.30463,Sebec,Maine,Piscataquis
4485,45.792364,-69.30463,Shirley Mills,Maine,Piscataquis
4487,45.519867,-68.647416,Springfield,Maine,Penobscot
4488,44.894697,-69.142341,Stetson,Maine,Penobscot
4489,44.922368,-68.686796,Stillwater,Maine,Penobscot
4490,45.002969,-67.495548,Topsfield,Maine,Washington
4491,45.002969,-67.495548,Vanceboro,Maine,Washington
4492,45.002969,-67.495548,Waite,Maine,Washington
4493,45.519867,-68.647416,West Enfield,Maine,Penobscot
4495,45.519867,-68.647416,Winn,Maine,Penobscot
4496,44.65337,-68.917487,Winterport,Maine,Waldo
4497,46.516166,-68.886826,Wytopitlock,Maine,Aroostook
4530,43.867892,-69.826495,Bath,Maine,Sagadahoc
4535,44.008962,-69.566684,Alna,Maine,Lincoln
4536,44.021333,-69.523263,Bayville,Maine,Lincoln
4537,43.894903,-69.627163,Boothbay,Maine,Lincoln
4538,43.956167,-69.517161,Boothbay Harbor,Maine,Lincoln
4539,43.928967,-69.598725,Bristol,Maine,Lincoln
4541,43.884294,-69.479184,Chamberlain,Maine,Lincoln
4543,43.986485,-69.424228,Damariscotta,Maine,Lincoln
4544,43.82677,-69.597446,East Boothbay,Maine,Lincoln
4547,44.010424,-69.231179,Friendship,Maine,Knox
4548,43.805389,-69.745295,Georgetown,Maine,Sagadahoc
4549,44.021333,-69.523263,Isle Of Springs,Maine,Lincoln
4551,44.010411,-69.440192,Bremen,Maine,Lincoln
4552,44.021333,-69.523263,Newagen,Maine,Lincoln
4553,43.991336,-69.503427,Newcastle,Maine,Lincoln
4554,43.870936,-69.566313,New Harbor,Maine,Lincoln
4555,44.074877,-69.536374,Nobleboro,Maine,Lincoln
4556,43.931748,-69.587334,Edgecomb,Maine,Lincoln
4558,43.896727,-69.509282,Pemaquid,Maine,Lincoln
4562,43.789616,-69.810821,Phippsburg,Maine,Sagadahoc
4563,44.02301,-69.255572,Cushing,Maine,Knox
4564,43.932449,-69.468052,Round Pond,Maine,Lincoln
4565,43.773312,-69.863461,Sebasco Estates,Maine,Sagadahoc
4567,43.900856,-69.859541,Small Point,Maine,Sagadahoc
4568,43.877877,-69.612725,South Bristol,Maine,Lincoln
4570,44.021333,-69.523263,Squirrel Island,Maine,Lincoln
4571,43.88261,-69.680144,Trevett,Maine,Lincoln
4572,44.038581,-69.415708,Waldoboro,Maine,Lincoln
4573,43.929821,-69.592127,Walpole,Maine,Lincoln
4574,44.162384,-69.387795,Washington,Maine,Knox
4575,43.854534,-69.660795,West Boothbay Harbor,Maine,Lincoln
4576,43.935605,-69.529648,Southport,Maine,Lincoln
4578,43.964901,-69.597134,Wiscasset,Maine,Lincoln
4579,43.938696,-69.764378,Woolwich,Maine,Sagadahoc
4605,44.477935,-68.356311,Ellsworth,Maine,Hancock
4606,45.002969,-67.495548,Addison,Maine,Washington
4607,44.483471,-68.090339,Gouldsboro,Maine,Hancock
4609,44.362323,-68.305513,Bar Harbor,Maine,Hancock
4611,45.002969,-67.495548,Beals,Maine,Washington
4612,44.239876,-68.354598,Bernard,Maine,Hancock
4613,44.641873,-68.391481,Birch Harbor,Maine,Hancock
4614,44.29691,-68.623927,Blue Hill,Maine,Hancock
4615,44.641873,-68.391481,Blue Hill Falls,Maine,Hancock
4616,44.258121,-68.567404,Brooklin,Maine,Hancock
4617,44.337581,-68.765568,Brooksville,Maine,Hancock
4619,45.188254,-67.389101,Calais,Maine,Washington
4622,44.603258,-67.923248,Cherryfield,Maine,Washington
4623,44.698608,-67.779881,Columbia Falls,Maine,Washington
4624,44.641873,-68.391481,Corea,Maine,Hancock
4625,44.641873,-68.391481,Cranberry Isles,Maine,Hancock
4626,45.002969,-67.495548,Cutler,Maine,Washington
4627,44.213503,-68.711691,Deer Isle,Maine,Hancock
4628,45.002969,-67.495548,Dennysville,Maine,Washington
4629,44.641873,-68.391481,East Blue Hill,Maine,Hancock
4630,44.70746,-67.46247,East Machias,Maine,Washington
4631,45.036287,-67.136853,Eastport,Maine,Washington
4634,44.595131,-68.233576,Franklin,Maine,Hancock
4635,44.641873,-68.391481,Frenchboro,Maine,Hancock
4637,45.185635,-67.601026,Grand Lake Stream,Maine,Washington
4640,44.641873,-68.391481,Hancock,Maine,Hancock
4642,44.641873,-68.391481,Harborside,Maine,Hancock
4643,45.002969,-67.495548,Harrington,Maine,Washington
4644,44.641873,-68.391481,Hulls Cove,Maine,Hancock
4645,44.032196,-69.148017,Isle Au Haut,Maine,Knox
4646,44.641873,-68.391481,Islesford,Maine,Hancock
4648,45.002969,-67.495548,Jonesboro,Maine,Washington
4649,45.002969,-67.495548,Jonesport,Maine,Washington
4650,44.641873,-68.391481,Little Deer Isle,Maine,Hancock
4652,44.904288,-67.040767,Lubec,Maine,Washington
4653,44.641873,-68.391481,Bass Harbor,Maine,Hancock
4654,44.660627,-67.469196,Machias,Maine,Washington
4655,45.002969,-67.495548,Machiasport,Maine,Washington
4656,44.641873,-68.391481,Manset,Maine,Hancock
4657,45.002969,-67.495548,Meddybemps,Maine,Washington
4658,45.002969,-67.495548,Milbridge,Maine,Washington
4660,44.334692,-68.308737,Mount Desert,Maine,Hancock
4662,44.294073,-68.284865,Northeast Harbor,Maine,Hancock
4664,44.641873,-68.391481,Sullivan,Maine,Hancock
4665,44.641873,-68.391481,Otter Creek,Maine,Hancock
4666,44.930092,-67.156533,Pembroke,Maine,Washington
4667,45.013348,-67.097043,Perry,Maine,Washington
4668,45.209229,-67.575432,Princeton,Maine,Washington
4669,44.641873,-68.391481,Prospect Harbor,Maine,Hancock
4671,45.002969,-67.495548,Robbinston,Maine,Washington
4672,44.413523,-68.251778,Salsbury Cove,Maine,Hancock
4673,44.313629,-68.686305,Sargentville,Maine,Hancock
4674,44.641873,-68.391481,Seal Cove,Maine,Hancock
4675,44.299037,-68.246314,Seal Harbor,Maine,Hancock
4676,44.399111,-68.701228,Sedgwick,Maine,Hancock
4677,44.491175,-68.19137,Sorrento,Maine,Hancock
4679,44.390897,-68.261568,Southwest Harbor,Maine,Hancock
4680,45.002969,-67.495548,Steuben,Maine,Washington
4681,44.641873,-68.391481,Stonington,Maine,Hancock
4683,44.641873,-68.391481,Sunset,Maine,Hancock
4684,44.641873,-68.391481,Surry,Maine,Hancock
4685,44.213118,-68.396479,Swans Island,Maine,Hancock
4686,45.002969,-67.495548,Wesley,Maine,Washington
4690,44.641873,-68.391481,West Tremont,Maine,Hancock
4691,45.002969,-67.495548,Whiting,Maine,Washington
4693,44.387188,-68.074964,Winter Harbor,Maine,Hancock
4694,45.152637,-67.37741,Baileyville,Maine,Washington
4730,46.121345,-67.833009,Houlton,Maine,Aroostook
4732,46.975725,-68.39816,Ashland,Maine,Aroostook
4733,46.516166,-68.886826,Benedicta,Maine,Aroostook
4734,46.516166,-68.886826,Blaine,Maine,Aroostook
4735,46.516166,-68.886826,Bridgewater,Maine,Aroostook
4736,46.871355,-68.025442,Caribou,Maine,Aroostook
4737,46.516166,-68.886826,Clayton Lake,Maine,Aroostook
4738,46.516166,-68.886826,Crouseville,Maine,Aroostook
4739,46.516166,-68.886826,Eagle Lake,Maine,Aroostook
4740,46.611101,-67.85582,Easton,Maine,Aroostook
4741,46.516166,-68.886826,Estcourt Station,Maine,Aroostook
4742,46.746453,-67.841507,Fort Fairfield,Maine,Aroostook
4743,47.056484,-68.255868,Fort Kent,Maine,Aroostook
4744,46.516166,-68.886826,Fort Kent Mills,Maine,Aroostook
4745,47.295289,-68.39192,Frenchville,Maine,Aroostook
4746,47.00434,-67.998581,Grand Isle,Maine,Aroostook
4747,46.011345,-68.273154,Island Falls,Maine,Aroostook
4750,46.906749,-67.851979,Limestone,Maine,Aroostook
4751,46.892918,-67.9643,Limestone,Maine,Aroostook
4756,46.934538,-68.109616,Madawaska,Maine,Aroostook
4757,47.007842,-68.182061,Mapleton,Maine,Aroostook
4758,46.551571,-67.84817,Mars Hill,Maine,Aroostook
4759,46.516166,-68.886826,Masardis,Maine,Aroostook
4760,46.516166,-68.886826,Monticello,Maine,Aroostook
4761,46.100442,-68.003376,New Limerick,Maine,Aroostook
4762,46.976619,-68.205546,New Sweden,Maine,Aroostook
4763,46.09998,-68.14487,Oakfield,Maine,Aroostook
4764,46.516166,-68.886826,Oxbow,Maine,Aroostook
4765,45.999084,-68.443112,Patten,Maine,Penobscot
4766,46.516166,-68.886826,Perham,Maine,Aroostook
4768,46.516166,-68.886826,Portage,Maine,Aroostook
4769,46.715072,-68.012557,Presque Isle,Maine,Aroostook
4770,46.516166,-68.886826,Quimby,Maine,Aroostook
4772,47.263956,-68.335025,Saint Agatha,Maine,Aroostook
4773,46.516166,-68.886826,Saint David,Maine,Aroostook
4774,46.516166,-68.886826,Saint Francis,Maine,Aroostook
4775,46.516166,-68.886826,Sheridan,Maine,Aroostook
4776,46.516166,-68.886826,Sherman Mills,Maine,Aroostook
4777,45.519867,-68.647416,Sherman Station,Maine,Penobscot
4779,46.516166,-68.886826,Sinclair,Maine,Aroostook
4780,46.516166,-68.886826,Smyrna Mills,Maine,Aroostook
4781,46.516166,-68.886826,Wallagrass,Maine,Aroostook
4782,45.519867,-68.647416,Stacyville,Maine,Penobscot
4783,46.787807,-68.155212,Stockholm,Maine,Aroostook
4785,46.986075,-68.042433,Van Buren,Maine,Aroostook
4786,46.793032,-68.105233,Washburn,Maine,Aroostook
4787,46.594523,-67.930172,Westfield,Maine,Aroostook
4788,46.516166,-68.886826,Winterville,Maine,Aroostook
4841,44.128607,-69.068648,Rockland,Maine,Knox
4843,44.12613,-69.029238,Camden,Maine,Knox
4846,44.131005,-69.091111,Glen Cove,Maine,Knox
4847,44.241072,-69.203015,Hope,Maine,Knox
4848,44.309021,-68.900772,Islesboro,Maine,Waldo
4849,44.324832,-68.998255,Lincolnville,Maine,Waldo
4850,44.478694,-69.149559,Lincolnville Center,Maine,Waldo
4851,44.032196,-69.148017,Matinicus,Maine,Knox
4852,44.021333,-69.523263,Monhegan,Maine,Lincoln
4853,44.113472,-68.855722,North Haven,Maine,Knox
4854,44.07951,-69.085574,Owls Head,Maine,Knox
4855,44.032196,-69.148017,Port Clyde,Maine,Knox
4856,44.132144,-69.03416,Rockport,Maine,Knox
4857,43.995024,-69.198524,Saint George,Maine,Knox
4858,44.115186,-69.132883,South Thomaston,Maine,Knox
4859,44.002248,-69.11955,Spruce Head,Maine,Knox
4860,43.963129,-69.213329,Tenants Harbor,Maine,Knox
4861,44.108131,-69.042704,Thomaston,Maine,Knox
4862,44.231517,-69.219722,Union,Maine,Knox
4863,44.08511,-68.841965,Vinalhaven,Maine,Knox
4864,44.086333,-69.188163,Warren,Maine,Knox
4865,44.192369,-69.121139,West Rockport,Maine,Knox
4901,44.554321,-69.617809,Waterville,Maine,Kennebec
4903,44.549225,-69.713178,Waterville,Maine,Kennebec
4910,44.530366,-69.639976,Albion,Maine,Kennebec
4911,44.81062,-69.912885,Anson,Maine,Somerset
4912,44.9227,-69.67668,Athens,Maine,Somerset
4915,44.404619,-69.040297,Belfast,Maine,Waldo
4917,44.480594,-69.83253,Belgrade,Maine,Kennebec
4918,44.414056,-69.751913,Belgrade Lakes,Maine,Kennebec
4920,45.575731,-69.909773,Bingham,Maine,Somerset
4921,44.579387,-69.175448,Brooks,Maine,Waldo
4922,44.677388,-69.378829,Burnham,Maine,Waldo
4923,45.036055,-69.438697,Cambridge,Maine,Somerset
4924,44.743659,-69.585151,Canaan,Maine,Somerset
4925,45.575731,-69.909773,Caratunk,Maine,Somerset
4926,44.391167,-69.538257,China Village,Maine,Kennebec
4927,44.621084,-69.512609,Clinton,Maine,Kennebec
4928,44.944157,-69.228736,Corinna,Maine,Penobscot
4929,44.761527,-69.322662,Detroit,Maine,Somerset
4930,44.964532,-69.203773,Dexter,Maine,Penobscot
4932,44.6819,-69.121648,Dixmont,Maine,Penobscot
4933,45.519867,-68.647416,East Newport,Maine,Penobscot
4935,44.414056,-69.751913,East Vassalboro,Maine,Kennebec
4936,45.063384,-70.381639,Eustis,Maine,Franklin
4937,44.646261,-69.680158,Fairfield,Maine,Somerset
4938,44.650311,-70.129267,Farmington,Maine,Franklin
4939,45.014913,-69.156965,Garland,Maine,Penobscot
4940,44.622563,-70.075178,Farmington Falls,Maine,Franklin
4941,44.488583,-69.339221,Freedom,Maine,Waldo
4942,44.973047,-69.548148,Harmony,Maine,Somerset
4943,44.896404,-69.464092,Hartland,Maine,Somerset
4944,44.684737,-69.6425,Hinckley,Maine,Somerset
4945,44.883675,-69.452187,Jackman,Maine,Somerset
4947,45.063384,-70.381639,Kingfield,Maine,Franklin
4949,44.371549,-69.15555,Liberty,Maine,Waldo
4950,44.786404,-69.805662,Madison,Maine,Somerset
4951,44.478694,-69.149559,Monroe,Maine,Waldo
4952,44.39785,-69.142182,Morrill,Maine,Waldo
4953,44.863406,-69.266827,Newport,Maine,Penobscot
4954,45.575731,-69.909773,New Portland,Maine,Somerset
4955,44.60363,-70.010292,New Sharon,Maine,Franklin
4956,44.952578,-70.183554,New Vineyard,Maine,Franklin
4957,44.707468,-69.818804,Norridgewock,Maine,Somerset
4958,44.8019,-69.946593,North Anson,Maine,Somerset
4961,45.575731,-69.909773,North New Portland,Maine,Somerset
4962,44.479288,-69.622006,North Vassalboro,Maine,Kennebec
4963,44.557111,-69.826495,Oakland,Maine,Kennebec
4964,45.063384,-70.381639,Oquossoc,Maine,Franklin
4965,44.802655,-69.537715,Palmyra,Maine,Somerset
4966,45.063384,-70.381639,Phillips,Maine,Franklin
4967,44.760948,-69.387705,Pittsfield,Maine,Somerset
4969,44.772503,-69.247539,Plymouth,Maine,Penobscot
4970,44.985998,-70.660181,Rangeley,Maine,Franklin
4971,44.93183,-69.403011,Saint Albans,Maine,Somerset
4972,44.478694,-69.149559,Sandy Point,Maine,Waldo
4973,44.357201,-69.215906,Searsmont,Maine,Waldo
4974,44.489412,-68.933051,Searsport,Maine,Waldo
4975,44.624515,-69.586852,Shawmut,Maine,Somerset
4976,44.769303,-69.593975,Skowhegan,Maine,Somerset
4978,44.62111,-69.770923,Smithfield,Maine,Somerset
4979,44.931415,-69.834764,Solon,Maine,Somerset
4981,44.501114,-68.891743,Stockton Springs,Maine,Waldo
4982,45.063384,-70.381639,Stratton,Maine,Franklin
4983,44.814175,-70.187221,Strong,Maine,Franklin
4984,44.670079,-70.196855,Temple,Maine,Franklin
4985,45.575731,-69.909773,West Forks,Maine,Somerset
4986,44.513048,-69.183929,Thorndike,Maine,Waldo
